~Version Information
 VERS.                         2.0 : CWLS log ASCII Standard -VERSION 2.0
 WRAP.                          NO : One line per depth step
~Well Information Block
#MNEM.UNIT            Data Type                      Information
#---------    --------------------   ----------------------------
 STRT.FT                         1 : 
 STOP.FT                     10900 : 
 STEP.FT                         1 : 
 NULL.                     -999.25 : 
 COMP.         TRANSCO EXPLORATION : COMPANY
 WELL.           OCS G-3546 NO.B-6 : WELL
 FLD .                   VERMILION : FIELD
 AREA.                   VERMILION : OFFSHORE AREA
 BLK .                          58 : OFFSHORE BLOCK
 CNTY.                             : COUNTY
 STAT.                             : STATE
 NATI.                      U.S.A. : NATION
 DATE.                 25-DEC-1981 : DATE OF FIRST LOG RUN
 API .                177054050600 : API
 UWI .                        1107 : UNIQUE WELL NUM
 LATI.               29 20' 20.04" : LATITUDE
 LONG.              -92 29'  1.32" : LONGITUDE
 CORD.    Lambert, South Louisiana Zone : MAP PROJECTION
 XLOC.FT              1633470.0000 : X LOCATION
 YLOC.FT               246314.0000 : Y LOCATION
 UNIT.                        FEET : UNIT OF DATA
~Curve Information Block
#MNEM.UNIT             API CODE                Curve Description
#---------    --------------------   ----------------------------
 DEPT.FT                           :  1 Depth
 SP  .MV                           :  2 Spontaneous Potential
 GR  .GAPI                         :  3 Gamma Ray
 NPHI.PU                           :  4 Neutron Porosity Sandstone
 RES .OHMM                         :  5 Resistivity
 DTS .US/F                         :  6 Shear Sonic, Extended to Datum
 RHOB.G/CC                         :  7 Density,Extended to Datum
 DT  .US/F                         :  8 Sonic,Extended to Datum
~Parameter Information Block
#MNEM.UNIT                Value                      Description
#---------    --------------------   ----------------------------
 EDF .FT                 -999.2500 : DRILLING FLOOR
 EGL .FT                       0.0 : GROUND LEVEL
 EKB .FT                   96.0000 : KELLY BUSHING
 ERF .                   Sea Level : ELEV REFERENCE
 LMF .                          KB : LOG MEASURED FROM
 RUN .                           1 : ========================LOGGING RUN
 DATE.                 25-DEC-1981 : DATE OF LOG RUN
 TLI .FT                       800 : TOP OF LOG RUN
 BLI .FT                      3500 : BOTTOM OF LOG RUN
 DFD .LBSG                  9.5000 : MUD DENSITY
 RMS .OHMS                  0.4199 : MUD RESISTIVITY
 MST .DEGF                 63.0000 : MUD TEMPERATURE
 RMFS.OHMS                  0.3499 : MUD FILTRATE RESISITIVITY
 MFST.DEGF                 63.0000 : MUD FILTRATE TEMPERATURE
 BHT .DEGF                109.0000 : BOTTOM HOLE TEMPERATURE
 RUN .                           2 : ========================LOGGING RUN
 DATE.                 12-JAN-1982 : DATE OF LOG RUN
 TLI .FT                      3500 : TOP OF LOG RUN
 BLI .FT                     10000 : BOTTOM OF LOG RUN
 DFD .LBSG                 13.5000 : MUD DENSITY
 RMS .OHMS                  0.6299 : MUD RESISTIVITY
 MST .DEGF                 50.0000 : MUD TEMPERATURE
 RMFS.OHMS                  0.3799 : MUD FILTRATE RESISITIVITY
 MFST.DEGF                 50.0000 : MUD FILTRATE TEMPERATURE
 BHT .DEGF                240.0000 : BOTTOM HOLE TEMPERATURE
 RUN .                           3 : ========================LOGGING RUN
 DATE.                  3-JAN-1982 : DATE OF LOG RUN
 TLI .FT                     10000 : TOP OF LOG RUN
 BLI .FT                     10900 : BOTTOM OF LOG RUN
 DFD .LBSG                 17.2000 : MUD DENSITY
 RMS .OHMS                  0.7500 : MUD RESISTIVITY
 MST .DEGF                 66.0000 : MUD TEMPERATURE
 RMFS.OHMS                  0.3700 : MUD FILTRATE RESISITIVITY
 MFST.DEGF                 66.0000 : MUD FILTRATE TEMPERATURE
 BHT .DEGF                240.0000 : BOTTOM HOLE TEMPERATURE
~ASCII        SP      GR    NPHI     RES     DTS    RHOB      DT
# ...
  6077.0   8.700  74.414  39.447   0.569 214.868   2.239 104.583
  6078.0  12.557  73.700  43.790   0.583 235.219   2.232 110.132
  6079.0  11.065  75.916  47.645   0.613 252.143   2.173 114.910
  6080.0   6.224  75.830  43.290   0.617 234.429   2.222 110.555
  6081.0  -0.323  73.944  40.381   0.554 236.833   2.238 111.914
  6082.0  -6.030  72.181  39.666   0.467 247.535   2.253 115.507
  6083.0  -8.588  69.037  41.120   0.405 237.960   2.226 113.108
  6084.0  -9.884  66.886  42.243   0.360 223.914   2.209 109.150
  6085.0 -10.045  67.458  41.485   0.342 219.889   2.202 107.956
  6086.0  -9.149  67.172  40.573   0.348 219.110   2.211 107.629
  6087.0  -8.315  66.777  38.274   0.361 218.931   2.230 107.491
  6088.0  -7.273  66.672  35.611   0.377 220.471   2.242 107.852
  6089.0  -6.186  67.761  34.844   0.393 222.028   2.275 108.210
  6090.0  -4.852  70.353  35.710   0.412 223.226   2.257 108.432
  6091.0  -4.178  71.428  38.106   0.432 219.529   2.248 107.256
  6092.0  -2.418  70.486  39.289   0.450 192.818   2.284  98.646
  6093.0   1.111  71.275  41.222   0.464 200.838   2.290 100.930
  6094.0   6.525  76.011  40.656   0.484 227.857   2.272 108.634
  6095.0  10.067  79.240  39.408   0.526 243.187   2.269 112.585
  6096.0  13.996  80.103  42.999   0.556 224.039   2.279 106.771
  6097.0  17.080  81.964  46.500   0.575 239.375   2.294 110.802
  6098.0  19.118  81.752  47.631   0.569 281.394   2.261 121.379
  6099.0  16.045  81.761  47.046   0.549 311.249   2.276 128.586
  6100.0  12.179  80.037  43.974   0.524 280.037   2.318 121.846
  6101.0  12.733  77.673  41.001   0.507 230.396   2.327 108.726
  6102.0  13.502  76.840  41.664   0.497 244.619   2.320 112.606
  6103.0   9.823  76.501  44.017   0.480 262.167   2.308 117.646
  6104.0   4.347  74.286  44.170   0.449 259.358   2.302 117.529
  6105.0   1.712  74.977  42.050   0.400 237.439   2.266 111.868
  6106.0   1.872  74.642  44.791   0.366 224.477   2.257 108.117
  6107.0   8.399  76.299  42.427   0.392 207.972   2.268 102.480
  6108.0  15.347  81.354  43.606   0.430 214.492   2.304 103.798
  6109.0  21.647  84.844  45.556   0.502 226.716   2.290 106.763
  6110.0  25.236  86.747  45.946   0.577 253.750   2.260 113.773
  6111.0  27.493  87.009  47.522   0.606 279.927   2.238 120.049
  6112.0  29.285  87.032  48.406   0.618 285.606   2.232 121.266
  6113.0  28.050  87.792  46.896   0.620 276.581   2.224 119.179
  6114.0  26.474  88.683  49.729   0.612 267.423   2.247 117.109
  6115.0  27.182  86.202  53.035   0.593 261.957   2.250 115.658
  6116.0  27.633  85.526  50.715   0.579 277.252   2.187 119.380
  6117.0  27.354  86.341  48.321   0.578 279.110   2.205 119.855
  6118.0  27.310  86.121  46.231   0.578 261.389   2.222 115.494
  6119.0  27.346  88.193  44.585   0.576 235.649   2.244 108.680
  6120.0  27.466  90.286  46.042   0.562 259.928   2.220 115.101
  6121.0  27.645  90.302  47.759   0.559 299.582   2.212 124.557
  6122.0  27.988  90.567  49.630   0.566 298.989   2.232 124.380
  6123.0  28.163  86.579  47.022   0.582 278.432   2.247 119.573
  6124.0  28.304  87.419  48.042   0.604 274.077   2.243 118.516
  6125.0  29.015  89.534  49.035   0.621 289.715   2.234 122.223
  6126.0  29.753  89.748  48.722   0.620 296.176   2.251 123.702
  6127.0  29.792  90.053  50.158   0.601 285.867   2.256 121.328
  6128.0  29.827  91.525  51.740   0.583 281.725   2.260 120.352
  6129.0  29.128  89.575  50.379   0.577 303.260   2.242 125.290
  6130.0  28.177  87.136  49.989   0.574 310.170   2.243 126.806
  6131.0  25.453  84.314  47.690   0.576 280.028   2.255 120.136
  6132.0  21.320  79.466  45.110   0.577 304.556   2.267 126.271
  6133.0  16.909  77.461  43.530   0.580 287.719   2.264 122.953
  6134.0  13.456  76.317  41.264   0.552 234.834   2.277 109.757
  6135.0  10.959  76.619  43.749   0.465 240.346   2.289 111.555
  6136.0  10.582  77.983  46.173   0.439 248.065   2.286 113.690
  6137.0  11.625  78.340  47.649   0.429 251.992   2.276 114.608
  6138.0  14.979  77.485  46.233   0.434 252.052   2.292 114.227
  6139.0  19.396  77.794  44.591   0.450 248.851   2.297 112.862
  6140.0  20.224  80.666  45.298   0.486 234.950   2.272 108.977
  6141.0  21.083  82.837  46.740   0.526 270.656   2.249 118.219
  6142.0  24.219  82.968  46.496   0.538 280.956   2.227 120.319
  6143.0  25.792  82.607  46.154   0.541 275.261   2.265 118.803
  6144.0  25.534  82.297  46.818   0.543 272.198   2.278 118.058
  6145.0  22.701  80.297  45.874   0.544 250.798   2.242 112.908
  6146.0  24.221  80.520  46.494   0.547 255.192   2.236 113.861
  6147.0  25.360  81.396  48.334   0.558 259.679   2.243 114.936
  6148.0  25.738  80.343  46.894   0.578 264.350   2.235 116.116
  6149.0  26.274  80.753  46.574   0.594 261.598   2.253 115.423
  6150.0  26.221  82.575  46.071   0.601 255.430   2.288 113.847
  6151.0  25.893  82.306  45.702   0.599 257.169   2.258 114.294
  6152.0  24.450  78.293  46.641   0.617 277.799   2.248 119.415
  6153.0  20.258  75.143  46.640   0.638 276.627   2.265 119.585
  6154.0  14.591  71.873  41.816   0.649 245.972   2.300 112.444
  6155.0  10.894  72.208  38.762   0.649 214.321   2.319 103.842
  6156.0  11.040  74.038  39.072   0.638 206.727   2.297 101.497
  6157.0  10.721  74.939  40.666   0.614 218.415   2.303 105.063
  6158.0   9.069  74.651  40.907   0.595 240.930   2.318 111.682
  6159.0   7.182  73.525  39.140   0.582 254.037   2.316 115.438
  6160.0   5.585  73.217  40.985   0.557 235.781   2.296 110.648
  6161.0   8.225  76.331  43.270   0.530 220.977   2.292 106.061
  6162.0  14.834  80.641  45.224   0.515 229.589   2.267 107.776
  6163.0  19.279  83.992  46.501   0.514 240.878   2.303 110.372
  6164.0  21.313  84.588  45.532   0.534 258.396   2.313 114.726
  6165.0  22.694  83.645  44.412   0.560 265.821   2.278 116.484
  6166.0  23.037  82.176  43.471   0.565 271.186   2.262 117.811
  6167.0  21.582  80.972  44.667   0.568 262.218   2.269 115.609
  6168.0  22.370  81.115  45.462   0.576 253.127   2.269 113.250
  6169.0  23.429  80.844  45.142   0.591 262.900   2.256 115.751
  6170.0  21.859  75.419  44.336   0.608 268.174   2.253 117.081
  6171.0  13.764  69.849  42.585   0.613 268.415   2.231 118.203
  6172.0   4.130  68.171  40.943   0.580 261.486   2.284 117.715
  6173.0  -7.857  62.809  39.538   0.466 253.070   2.313 117.080
  6174.0 -16.890  54.733  38.204   0.379 241.558   2.219 115.089
  6175.0 -22.698  51.743  36.807   0.287 227.069   2.182 111.502
  6176.0 -23.782  50.931  37.877   0.208 213.492   2.215 107.334
  6177.0 -23.941  52.209  38.503   0.190 218.283   2.202 108.827
  6178.0 -23.203  55.620  37.741   0.197 209.854   2.201 106.183
  6179.0 -19.604  60.549  38.159   0.250 186.181   2.238  98.082
  6180.0  -6.849  70.119  39.192   0.306 181.109   2.275  94.965
  6181.0   4.140  77.577  43.177   0.527 202.827   2.260 100.980
  6182.0  12.500  78.078  43.149   0.664 250.868   2.267 113.908
  6183.0  18.036  72.866  41.088   0.777 292.432   2.264 123.467
  6184.0  16.046  70.911  40.208   0.836 279.562   2.299 120.709
  6185.0   8.474  69.413  38.822   0.754 243.083   2.309 112.328
  6186.0   3.792  68.796  38.689   0.660 224.245   2.327 107.563
  6187.0   1.419  69.432  39.581   0.565 225.349   2.314 108.172
  6188.0  -1.108  68.740  40.147   0.497 232.050   2.290 110.426
  6189.0  -6.771  66.771  41.478   0.423 237.473   2.265 112.679
  6190.0 -13.399  64.523  40.989   0.372 241.525   2.240 114.671
  6191.0 -18.225  60.935  40.238   0.224 244.710   2.192 116.198
  6192.0 -14.492  60.799  40.302   0.217 231.167   2.166 111.835
  6193.0  -0.403  66.004  40.642   0.239 216.482   2.218 105.768
  6194.0   5.747  72.615  42.190   0.262 247.818   2.277 113.997
  6195.0   5.212  75.050  44.157   0.334 255.071   2.294 116.006
  6196.0   3.891  74.075  45.510   0.503 235.056   2.340 110.707
  6197.0   3.371  73.196  41.462   0.554 239.221   2.317 111.944
  6198.0   3.523  73.021  39.634   0.534 230.253   2.291 109.390
  6199.0   6.861  73.998  37.915   0.521 217.059   2.294 105.131
  6200.0  11.462  73.297  35.915   0.568 217.514   2.333 104.748
