~Version Information
 VERS.                         2.0 : CWLS log ASCII Standard -VERSION 2.0
 WRAP.                          NO : One line per depth step
~Well Information Block
#MNEM.UNIT            Data Type                      Information
#---------    --------------------   ----------------------------
 STRT.FT                         1 : 
 STOP.FT                     10900 : 
 STEP.FT                         1 : 
 NULL.                     -999.25 : 
 COMP.         TRANSCO EXPLORATION : COMPANY
 WELL.           OCS G-3546 NO.B-6 : WELL
 FLD .                   VERMILION : FIELD
 AREA.                   VERMILION : OFFSHORE AREA
 BLK .                          58 : OFFSHORE BLOCK
 CNTY.                             : COUNTY
 STAT.                             : STATE
 NATI.                      U.S.A. : NATION
 DATE.                 25-DEC-1981 : DATE OF FIRST LOG RUN
 API .                177054050600 : API
 UWI .                        1107 : UNIQUE WELL NUM
 LATI.               29 20' 20.04" : LATITUDE
 LONG.              -92 29'  1.32" : LONGITUDE
 CORD.    Lambert, South Louisiana Zone : MAP PROJECTION
 XLOC.FT              1633470.0000 : X LOCATION
 YLOC.FT               246314.0000 : Y LOCATION
 UNIT.                        FEET : UNIT OF DATA
~Curve Information Block
#MNEM.UNIT             API CODE                Curve Description
#---------    --------------------   ----------------------------
 DEPT.FT                           :  1 Depth
 SP  .MV                           :  2 Spontaneous Potential
 GR  .GAPI                         :  3 Gamma Ray
 NPHI.PU                           :  4 Neutron Porosity Sandstone
 RES .OHMM                         :  5 Resistivity
 DTS .US/F                         :  6 Shear Sonic, Extended to Datum
 RHOB.G/CC                         :  7 Density,Extended to Datum
 DT  .US/F                         :  8 Sonic,Extended to Datum
~Parameter Information Block
#MNEM.UNIT                Value                      Description
#---------    --------------------   ----------------------------
 EDF .FT                 -999.2500 : DRILLING FLOOR
 EGL .FT                       0.0 : GROUND LEVEL
 EKB .FT                   96.0000 : KELLY BUSHING
 ERF .                   Sea Level : ELEV REFERENCE
 LMF .                          KB : LOG MEASURED FROM
 RUN .                           1 : ========================LOGGING RUN
 DATE.                 25-DEC-1981 : DATE OF LOG RUN
 TLI .FT                       800 : TOP OF LOG RUN
 BLI .FT                      3500 : BOTTOM OF LOG RUN
 DFD .LBSG                  9.5000 : MUD DENSITY
 RMS .OHMS                  0.4199 : MUD RESISTIVITY
 MST .DEGF                 63.0000 : MUD TEMPERATURE
 RMFS.OHMS                  0.3499 : MUD FILTRATE RESISITIVITY
 MFST.DEGF                 63.0000 : MUD FILTRATE TEMPERATURE
 BHT .DEGF                109.0000 : BOTTOM HOLE TEMPERATURE
 RUN .                           2 : ========================LOGGING RUN
 DATE.                 12-JAN-1982 : DATE OF LOG RUN
 TLI .FT                      3500 : TOP OF LOG RUN
 BLI .FT                     10000 : BOTTOM OF LOG RUN
 DFD .LBSG                 13.5000 : MUD DENSITY
 RMS .OHMS                  0.6299 : MUD RESISTIVITY
 MST .DEGF                 50.0000 : MUD TEMPERATURE
 RMFS.OHMS                  0.3799 : MUD FILTRATE RESISITIVITY
 MFST.DEGF                 50.0000 : MUD FILTRATE TEMPERATURE
 BHT .DEGF                240.0000 : BOTTOM HOLE TEMPERATURE
 RUN .                           3 : ========================LOGGING RUN
 DATE.                  3-JAN-1982 : DATE OF LOG RUN
 TLI .FT                     10000 : TOP OF LOG RUN
 BLI .FT                     10900 : BOTTOM OF LOG RUN
 DFD .LBSG                 17.2000 : MUD DENSITY
 RMS .OHMS                  0.7500 : MUD RESISTIVITY
 MST .DEGF                 66.0000 : MUD TEMPERATURE
 RMFS.OHMS                  0.3700 : MUD FILTRATE RESISITIVITY
 MFST.DEGF                 66.0000 : MUD FILTRATE TEMPERATURE
 BHT .DEGF                240.0000 : BOTTOM HOLE TEMPERATURE
~ASCII        SP      GR    NPHI     RES     DTS    RHOB      DT
# ...
  7441.0  25.161  75.962  50.064   0.860 261.832   2.288 115.553
  7442.0  25.152  73.930  51.747   0.812 255.289   2.307 113.882
  7443.0  25.635  71.535  52.463   0.779 252.695   2.317 113.152
  7444.0  26.234  72.909  49.955   0.775 251.135   2.312 112.730
  7445.0  25.834  76.223  48.151   0.789 249.330   2.264 112.257
  7446.0  25.433  77.187  46.078   0.827 246.884   2.291 111.648
  7447.0  25.655  75.840  44.488   0.862 246.812   2.299 111.603
  7448.0  25.728  73.964  44.841   0.881 254.170   2.322 113.525
  7449.0  25.429  73.614  46.284   0.895 254.196   2.283 113.568
  7450.0  25.131  72.770  45.888   0.898 254.117   2.297 113.582
  7451.0  24.833  72.675  45.507   0.879 260.637   2.291 115.292
  7452.0  24.709  75.200  45.710   0.843 258.598   2.303 114.787
  7453.0  25.401  76.859  46.504   0.803 260.598   2.259 115.214
  7454.0  26.288  75.676  46.583   0.780 265.134   2.269 116.312
  7455.0  26.688  76.532  46.455   0.782 266.741   2.269 116.713
  7456.0  26.270  76.464  46.281   0.797 266.478   2.269 116.647
  7457.0  26.781  75.578  46.246   0.810 264.894   2.288 116.252
  7458.0  26.763  73.469  46.071   0.819 261.992   2.293 115.523
  7459.0  26.112  72.396  45.405   0.819 258.566   2.305 114.652
  7460.0  26.048  72.197  45.229   0.821 253.692   2.317 113.397
  7461.0  26.236  70.978  46.515   0.824 248.320   2.326 111.990
  7462.0  26.121  70.496  46.319   0.825 246.507   2.354 111.510
  7463.0  26.755  70.329  46.165   0.830 247.067   2.309 111.658
  7464.0  27.522  71.367  47.092   0.831 251.074   2.322 112.714
  7465.0  27.198  73.746  46.180   0.833 256.488   2.302 114.120
  7466.0  27.146  73.621  48.564   0.831 261.483   2.310 115.394
  7467.0  27.706  72.355  51.090   0.828 266.325   2.308 116.609
  7468.0  27.964  71.063  50.117   0.819 252.682   2.304 113.134
  7469.0  28.168  70.099  48.189   0.798 250.772   2.294 112.635
  7470.0  28.014  69.667  48.118   0.769 273.505   2.293 118.377
  7471.0  27.698  70.830  48.510   0.742 263.010   2.302 115.779
  7472.0  27.075  72.617  47.812   0.727 251.099   2.299 112.721
  7473.0  26.896  72.340  46.422   0.753 242.463   2.295 110.427
  7474.0  27.464  69.307  44.565   0.788 240.101   2.301 109.788
  7475.0  28.200  66.362  41.521   0.828 237.757   2.315 109.149
  7476.0  28.366  66.078  41.769   0.877 237.236   2.332 109.006
  7477.0  28.386  67.096  44.108   0.897 236.980   2.338 108.936
  7478.0  28.795  67.877  46.028   0.843 246.729   2.310 111.569
  7479.0  29.282  67.884  46.404   0.789 257.750   2.292 114.443
  7480.0  29.306  67.289  46.588   0.735 265.782   2.283 116.474
  7481.0  28.171  66.708  47.571   0.718 265.265   2.276 116.345
  7482.0  27.186  66.544  48.085   0.720 249.554   2.290 112.316
  7483.0  26.943  65.684  45.634   0.712 243.950   2.311 110.827
  7484.0  26.771  64.466  45.274   0.702 256.174   2.310 114.039
  7485.0  26.976  63.407  44.772   0.685 281.550   2.285 120.310
  7486.0  27.249  62.318  45.122   0.664 282.265   2.244 120.480
  7487.0  27.597  62.118  46.011   0.643 279.489   2.201 119.820
  7488.0  28.022  61.689  48.187   0.636 279.525   2.325 119.828
  7489.0  28.231  62.607  49.654   0.649 262.607   2.304 115.678
  7490.0  28.251  62.410  49.978   0.645 262.325   2.222 115.607
  7491.0  27.499  62.023  50.577   0.636 291.317   2.276 122.592
  7492.0  26.631  62.895  50.179   0.674 297.987   2.264 124.111
  7493.0  25.823  61.817  48.278   0.700 281.119   2.268 120.209
  7494.0  25.593  59.399  48.552   0.703 269.016   2.274 117.306
  7495.0  26.565  59.838  48.617   0.736 268.578   2.347 117.169
  7496.0  26.858  61.658  46.807   0.761 276.327   2.302 119.061
  7497.0  26.167  63.406  43.502   0.763 288.232   2.288 121.879
  7498.0  25.834  64.221  42.820   0.757 292.742   2.280 122.920
  7499.0  25.776  64.331  46.182   0.760 274.339   2.303 118.588
  7500.0  26.389  64.533  47.270   0.764 266.873   2.305 116.746
  7501.0  25.867  62.322  47.837   0.766 268.480   2.335 117.144
  7502.0  25.182  61.864  46.336   0.777 270.107   2.291 117.626
  7503.0  24.610  63.408  49.276   0.785 271.784   2.298 118.109
  7504.0  24.419  66.249  48.095   0.786 275.682   2.330 119.082
  7505.0  24.329  67.805  47.810   0.778 270.371   2.295 117.796
  7506.0  25.434  66.926  48.327   0.770 265.172   2.274 116.372
  7507.0  25.556  64.523  47.513   0.774 278.543   2.317 119.630
  7508.0  25.622  63.535  45.007   0.807 265.729   2.356 116.489
  7509.0  25.616  64.489  43.780   0.854 227.766   2.341 106.392
  7510.0  25.669  64.190  40.834   0.915 228.209   2.343 106.512
  7511.0  25.977  64.023  42.999   0.948 217.687   2.343 103.459
  7512.0  26.285  63.974  45.107   0.962 226.008   2.332 105.866
  7513.0  25.899  63.424  47.202   0.915 223.065   2.312 105.023
  7514.0  25.161  60.868  47.389   0.794 230.686   2.301 107.267
  7515.0  24.816  61.110  45.006   0.775 257.492   2.424 114.502
  7516.0  24.286  64.013  43.651   0.814 258.152   2.377 114.734
  7517.0  24.158  64.162  44.375   0.872 242.252   2.363 110.565
  7518.0  24.582  62.776  45.903   0.917 236.772   2.345 109.023
  7519.0  25.542  62.941  47.425   0.941 242.243   2.318 110.405
  7520.0  26.898  64.406  47.394   0.918 267.348   2.309 116.864
  7521.0  26.825  65.550  44.785   0.846 263.533   2.303 115.911
  7522.0  26.431  65.590  45.890   0.815 287.425   2.349 121.691
  7523.0  26.100  62.812  47.690   0.795 252.611   2.318 113.116
  7524.0  25.788  57.872  48.921   0.760 193.303   2.263  95.992
  7525.0  26.307  53.270  49.330   0.771 222.161   2.304 104.762
  7526.0  26.824  48.871  48.867   0.796 257.983   2.413 114.503
  7527.0  27.074  51.034  46.717   0.781 243.439   2.451 110.690
  7528.0  27.237  55.882  46.029   0.763 251.821   2.424 112.910
  7529.0  26.490  59.805  45.432   0.805 299.858   2.376 124.532
  7530.0  25.743  61.031  44.099   0.847 277.030   2.323 119.248
  7531.0  24.234  61.687  41.990   0.842 227.631   2.335 106.509
  7532.0  23.812  60.723  48.532   0.807 189.451   2.317  94.941
  7533.0  26.003  54.573  52.062   0.746 214.174   2.276 102.422
  7534.0  27.138  53.232  53.298   0.691 285.912   2.327 121.338
  7535.0  28.061  55.231  51.879   0.661 300.545   2.345 124.685
  7536.0  28.469  58.461  49.757   0.651 284.548   2.363 121.018
  7537.0  27.953  58.294  48.143   0.651 263.234   2.323 115.836
  7538.0  27.696  58.685  47.804   0.663 255.129   2.328 113.769
  7539.0  27.826  59.053  50.935   0.681 253.861   2.324 113.441
  7540.0  27.467  60.680  51.000   0.699 255.515   2.327 113.869
  7541.0  27.073  61.385  48.904   0.711 267.947   2.280 117.012
  7542.0  26.483  59.940  48.155   0.718 281.535   2.290 120.307
  7543.0  25.865  62.215  47.945   0.734 295.386   2.295 123.528
  7544.0  26.122  65.852  49.440   0.757 290.961   2.370 122.510
  7545.0  26.523  68.722  51.092   0.768 273.460   2.319 118.366
  7546.0  27.283  70.152  52.376   0.731 280.580   2.285 120.080
  7547.0  27.728  71.726  53.896   0.687 300.725   2.265 124.725
  7548.0  27.958  75.535  53.042   0.656 318.474   2.307 128.587
  7549.0  28.148  82.932  46.228   0.646 300.372   2.354 124.646
  7550.0  27.586  95.876  46.300   0.661 278.143   2.346 119.498
  7551.0  27.024 100.070  46.874   0.689 265.219   2.312 116.333
  7552.0  26.757 103.132  47.754   0.695 255.826   2.292 113.949
  7553.0  26.570 103.681  49.424   0.683 260.066   2.282 115.034
  7554.0  26.671  97.648  49.882   0.665 274.304   2.278 118.571
  7555.0  26.823  93.720  47.990   0.655 275.592   2.284 118.883
  7556.0  27.109  91.657  46.486   0.654 256.778   2.274 114.194
  7557.0  27.289  88.991  47.153   0.672 255.215   2.298 113.792
  7558.0  27.149  85.897  49.427   0.703 265.734   2.293 116.462
  7559.0  27.313  83.001  51.616   0.705 261.639   2.306 115.433
  7560.0  27.478  81.598  52.168   0.709 254.825   2.372 113.691
  7561.0  27.132  83.833  48.227   0.739 269.493   2.391 117.394
  7562.0  26.655  89.905  45.575   0.786 291.161   2.456 122.556
  7563.0  26.189  94.931  45.206   0.830 265.661   2.397 116.444
  7564.0  25.754  94.475  45.039   0.868 247.742   2.341 111.859
