~Version Information
 VERS.                         2.0 : CWLS log ASCII Standard -VERSION 2.0
 WRAP.                          NO : One line per depth step
~Well Information Block
#MNEM.UNIT            Data Type                      Information
#---------    --------------------   ----------------------------
 STRT.FT                         1 : 
 STOP.FT                     10900 : 
 STEP.FT                         1 : 
 NULL.                     -999.25 : 
 COMP.         TRANSCO EXPLORATION : COMPANY
 WELL.           OCS G-3546 NO.B-6 : WELL
 FLD .                   VERMILION : FIELD
 AREA.                   VERMILION : OFFSHORE AREA
 BLK .                          58 : OFFSHORE BLOCK
 CNTY.                             : COUNTY
 STAT.                             : STATE
 NATI.                      U.S.A. : NATION
 DATE.                 25-DEC-1981 : DATE OF FIRST LOG RUN
 API .                177054050600 : API
 UWI .                        1107 : UNIQUE WELL NUM
 LATI.               29 20' 20.04" : LATITUDE
 LONG.              -92 29'  1.32" : LONGITUDE
 CORD.    Lambert, South Louisiana Zone : MAP PROJECTION
 XLOC.FT              1633470.0000 : X LOCATION
 YLOC.FT               246314.0000 : Y LOCATION
 UNIT.                        FEET : UNIT OF DATA
~Curve Information Block
#MNEM.UNIT             API CODE                Curve Description
#---------    --------------------   ----------------------------
 DEPT.FT                           :  1 Depth
 SP  .MV                           :  2 Spontaneous Potential
 GR  .GAPI                         :  3 Gamma Ray
 NPHI.PU                           :  4 Neutron Porosity Sandstone
 RES .OHMM                         :  5 Resistivity
 DTS .US/F                         :  6 Shear Sonic, Extended to Datum
 RHOB.G/CC                         :  7 Density,Extended to Datum
 DT  .US/F                         :  8 Sonic,Extended to Datum
~Parameter Information Block
#MNEM.UNIT                Value                      Description
#---------    --------------------   ----------------------------
 EDF .FT                 -999.2500 : DRILLING FLOOR
 EGL .FT                       0.0 : GROUND LEVEL
 EKB .FT                   96.0000 : KELLY BUSHING
 ERF .                   Sea Level : ELEV REFERENCE
 LMF .                          KB : LOG MEASURED FROM
 RUN .                           1 : ========================LOGGING RUN
 DATE.                 25-DEC-1981 : DATE OF LOG RUN
 TLI .FT                       800 : TOP OF LOG RUN
 BLI .FT                      3500 : BOTTOM OF LOG RUN
 DFD .LBSG                  9.5000 : MUD DENSITY
 RMS .OHMS                  0.4199 : MUD RESISTIVITY
 MST .DEGF                 63.0000 : MUD TEMPERATURE
 RMFS.OHMS                  0.3499 : MUD FILTRATE RESISITIVITY
 MFST.DEGF                 63.0000 : MUD FILTRATE TEMPERATURE
 BHT .DEGF                109.0000 : BOTTOM HOLE TEMPERATURE
 RUN .                           2 : ========================LOGGING RUN
 DATE.                 12-JAN-1982 : DATE OF LOG RUN
 TLI .FT                      3500 : TOP OF LOG RUN
 BLI .FT                     10000 : BOTTOM OF LOG RUN
 DFD .LBSG                 13.5000 : MUD DENSITY
 RMS .OHMS                  0.6299 : MUD RESISTIVITY
 MST .DEGF                 50.0000 : MUD TEMPERATURE
 RMFS.OHMS                  0.3799 : MUD FILTRATE RESISITIVITY
 MFST.DEGF                 50.0000 : MUD FILTRATE TEMPERATURE
 BHT .DEGF                240.0000 : BOTTOM HOLE TEMPERATURE
 RUN .                           3 : ========================LOGGING RUN
 DATE.                  3-JAN-1982 : DATE OF LOG RUN
 TLI .FT                     10000 : TOP OF LOG RUN
 BLI .FT                     10900 : BOTTOM OF LOG RUN
 DFD .LBSG                 17.2000 : MUD DENSITY
 RMS .OHMS                  0.7500 : MUD RESISTIVITY
 MST .DEGF                 66.0000 : MUD TEMPERATURE
 RMFS.OHMS                  0.3700 : MUD FILTRATE RESISITIVITY
 MFST.DEGF                 66.0000 : MUD FILTRATE TEMPERATURE
 BHT .DEGF                240.0000 : BOTTOM HOLE TEMPERATURE
~ASCII        SP      GR    NPHI     RES     DTS    RHOB      DT
# ...
  2729.0 -16.980  27.276 -999.25   0.338 656.919   1.883 185.701
  2730.0 -17.208  27.460 -999.25   0.340 649.605   1.885 184.969
  2731.0 -16.866  26.317 -999.25   0.355 638.181   1.888 183.804
  2732.0 -16.243  24.923 -999.25   0.364 598.231   1.900 179.510
  2733.0 -16.260  24.525 -999.25   0.350 534.111   1.922 171.814
  2734.0 -16.557  24.758 -999.25   0.320 493.934   1.938 166.400
  2735.0 -16.846  24.737 -999.25   0.287 477.321   1.945 164.008
  2736.0 -16.903  23.014 -999.25   0.274 501.846   1.934 167.506
  2737.0 -16.708  22.773 -999.25   0.269 530.614   1.923 171.362
  2738.0 -17.081  26.053 -999.25   0.273 559.920   1.912 175.041
  2739.0 -17.787  27.074 -999.25   0.285 586.614   1.903 178.194
  2740.0 -17.400  26.402 -999.25   0.311 615.331   1.895 181.392
  2741.0 -17.192  24.568 -999.25   0.340 614.224   1.895 181.272
  2742.0 -17.773  22.800 -999.25   0.351 613.118   1.895 181.152
  2743.0 -17.157  21.668 -999.25   0.371 612.016   1.896 181.032
  2744.0 -16.526  21.896 -999.25   0.401 610.916   1.896 180.912
  2745.0 -16.323  22.135 -999.25   0.441 609.818   1.896 180.792
  2746.0 -16.266  22.644 -999.25   0.476 608.723   1.897 180.672
  2747.0 -16.306  23.270 -999.25   0.511 607.630   1.897 180.553
  2748.0 -16.439  23.787 -999.25   0.549 606.539   1.897 180.433
  2749.0 -16.713  24.101 -999.25   0.566 605.452   1.898 180.313
  2750.0 -17.282  22.923 -999.25   0.554 604.366   1.898 180.193
  2751.0 -17.413  20.284 -999.25   0.529 603.283   1.898 180.073
  2752.0 -16.716  20.872 -999.25   0.520 602.203   1.899 179.953
  2753.0 -17.097  23.591 -999.25   0.552 601.125   1.899 179.834
  2754.0 -15.797  27.237 -999.25   0.561 600.049   1.899 179.714
  2755.0 -15.123  34.860 -999.25   0.528 598.976   1.900 179.594
  2756.0 -13.853  46.362 -999.25   0.501 543.749   1.926 172.471
  2757.0 -11.990  53.167 -999.25   0.494 512.396   1.954 167.366
  2758.0  -8.694  54.200 -999.25   0.501 456.154   2.007 157.649
  2759.0  -3.870  57.807 -999.25   0.537 391.664   2.086 144.877
  2760.0  -1.916  65.456 -999.25   0.658 357.431   2.128 137.768
  2761.0  -1.406  67.282 -999.25   0.733 326.135   2.159 131.309
  2762.0  -1.031  63.589 -999.25   0.789 323.580   2.164 130.631
  2763.0  -0.289  62.074 -999.25   0.830 337.816   2.158 133.270
  2764.0  -0.328  62.314 -999.25   0.824 357.084   2.142 137.066
  2765.0  -0.013  61.052 -999.25   0.762 352.566   2.148 136.077
  2766.0   1.587  63.126 -999.25   0.673 394.240   2.130 143.004
  2767.0   1.593  67.949 -999.25   0.622 438.056   2.103 150.078
  2768.0   1.665  68.127 -999.25   0.610 394.240   2.130 143.004
  2769.0   2.070  65.494 -999.25   0.644 358.768   2.156 136.637
  2770.0   2.804  64.251 -999.25   0.708 389.366   2.134 142.165
  2771.0   3.490  63.046 -999.25   0.757 414.409   2.117 146.361
  2772.0   2.882  60.162 -999.25   0.775 404.404   2.124 144.718
  2773.0   1.049  56.881 -999.25   0.742 348.418   2.159 134.901
  2774.0  -2.088  54.195 -999.25   0.667 360.116   2.122 138.456
  2775.0  -3.607  54.078 -999.25   0.502 375.826   2.097 142.044
  2776.0  -4.078  56.427 -999.25   0.430 374.753   2.093 142.060
  2777.0  -3.559  58.415 -999.25   0.372 375.203   2.098 141.923
  2778.0  -1.911  58.118 -999.25   0.374 434.025   2.074 151.133
  2779.0  -0.957  57.530 -999.25   0.400 411.179   2.096 147.044
  2780.0  -1.387  59.022 -999.25   0.458 366.507   2.122 139.408
  2781.0  -2.023  65.324 -999.25   0.479 407.154   2.089 146.869
  2782.0  -0.225  72.232 -999.25   0.493 425.155   2.093 148.999
  2783.0   1.629  69.350 -999.25   0.508 376.658   2.141 140.016
  2784.0   2.313  61.168 -999.25   0.573 406.994   2.122 145.147
  2785.0   1.763  55.194 -999.25   0.668 369.504   2.147 138.680
  2786.0  -0.170  52.513 -999.25   0.694 346.803   2.148 135.180
  2787.0  -0.846  53.082 -999.25   0.578 384.100   2.113 142.428
  2788.0  -0.099  59.979 -999.25   0.497 380.683   2.122 141.508
  2789.0  -0.481  70.099 -999.25   0.454 382.017   2.118 141.917
  2790.0  -1.257  75.191 -999.25   0.430 410.230   2.092 147.109
  2791.0   0.165  79.658 -999.25   0.449 426.145   2.095 149.055
  2792.0   2.689  83.289 -999.25   0.518 429.278   2.108 148.725
  2793.0   4.808  80.893 -999.25   0.581 459.922   2.091 153.323
  2794.0   5.495  73.096 -999.25   0.654 474.500   2.084 155.391
  2795.0   4.498  64.071 -999.25   0.780 453.590   2.095 152.401
  2796.0   3.972  57.053 -999.25   0.859 410.200   2.120 145.675
  2797.0   2.425  56.067 -999.25   0.832 395.325   2.130 143.189
  2798.0  -0.797  57.366 -999.25   0.734 380.125   2.115 141.783
  2799.0  -2.251  56.272 -999.25   0.612 370.818   2.109 140.715
  2800.0  -3.020  55.670 -999.25   0.494 364.396   2.107 139.849
  2801.0  -3.120  59.394 -999.25   0.442 393.437   2.085 145.166
  2802.0  -2.428  66.646 -999.25   0.418 421.527   2.074 149.578
  2803.0  -0.693  70.552 -999.25   0.426 373.116   2.120 140.508
  2804.0   0.250  73.177 -999.25   0.460 375.410   2.126 140.537
  2805.0   0.900  74.912 -999.25   0.528 375.591   2.132 140.305
  2806.0   0.575  68.666 -999.25   0.617 362.263   2.139 137.994
  2807.0   2.544  58.497 -999.25   0.716 365.778   2.151 137.945
  2808.0   3.663  52.045 -999.25   0.790 393.248   2.131 142.834
  2809.0   3.891  54.499 -999.25   0.849 383.396   2.138 141.123
  2810.0   3.925  57.904 -999.25   0.899 337.598   2.174 132.525
  2811.0   4.682  56.788 -999.25   0.923 340.860   2.171 133.175
  2812.0   4.125  54.571 -999.25   0.848 344.153   2.168 133.825
  2813.0   2.572  54.075 -999.25   0.735 362.106   2.154 137.263
  2814.0   2.276  54.768 -999.25   0.637 350.675   2.160 135.219
  2815.0   0.444  55.054 -999.25   0.556 332.201   2.160 132.277
  2816.0  -1.876  55.208 -999.25   0.491 357.981   2.118 138.320
  2817.0  -3.125  55.089 -999.25   0.403 376.997   2.093 142.408
  2818.0  -3.618  54.567 -999.25   0.386 379.365   2.087 143.060
  2819.0  -2.407  54.085 -999.25   0.394 386.191   2.092 143.783
  2820.0  -3.074  53.526 -999.25   0.404 397.778   2.079 146.111
  2821.0  -6.664  52.264 -999.25   0.405 394.413   2.051 147.106
  2822.0  -6.390  52.388 -999.25   0.387 399.744   2.050 147.927
  2823.0  -5.904  50.034 -999.25   0.365 401.693   2.052 148.060
  2824.0  -5.767  39.258 -999.25   0.358 416.303   2.044 150.480
  2825.0  -9.737  32.374 -999.25   0.361 418.557   2.010 152.680
  2826.0 -13.570  32.428 -999.25   0.348 425.328   1.975 155.634
  2827.0 -13.669  32.844 -999.25   0.316 457.129   1.958 160.783
  2828.0 -13.368  32.420 -999.25   0.286 460.754   1.958 161.193
  2829.0 -12.473  31.064 -999.25   0.275 463.862   1.964 161.222
  2830.0 -12.402  29.933 -999.25   0.277 482.198   1.956 163.897
  2831.0 -14.512  28.851 -999.25   0.278 501.888   1.934 167.512
  2832.0 -14.868  28.716 -999.25   0.275 522.266   1.926 170.269
  2833.0 -14.480  31.604 -999.25   0.270 528.282   1.924 171.059
  2834.0 -15.066  34.404 -999.25   0.273 514.239   1.929 169.198
  2835.0 -14.580  33.114 -999.25   0.285 507.060   1.932 168.224
  2836.0 -14.130  30.529 -999.25   0.297 508.750   1.932 168.455
  2837.0 -13.980  28.948 -999.25   0.306 509.936   1.931 168.616
  2838.0 -14.225  28.531 -999.25   0.305 510.658   1.931 168.714
  2839.0 -14.969  30.715 -999.25   0.303 513.171   1.930 169.054
  2840.0 -15.025  33.491 -999.25   0.306 518.778   1.928 169.806
  2841.0 -14.727  34.012 -999.25   0.313 525.502   1.925 170.695
  2842.0 -14.615  34.637 -999.25   0.312 532.435   1.922 171.598
  2843.0 -15.834  35.668 -999.25   0.297 537.736   1.920 172.279
  2844.0 -14.747  37.643 -999.25   0.269 518.666   1.928 169.791
  2845.0 -13.989  39.499 -999.25   0.254 500.943   1.935 167.381
  2846.0 -12.461  40.086 -999.25   0.247 493.967   1.948 165.710
  2847.0 -10.873  36.414 -999.25   0.259 487.905   1.963 164.070
  2848.0 -11.336  32.578 -999.25   0.290 486.181   1.960 164.062
  2849.0 -12.314  35.219 -999.25   0.301 491.235   1.950 165.272
  2850.0 -13.994  37.409 -999.25   0.294 494.385   1.938 166.463
  2851.0 -14.528  36.505 -999.25   0.280 488.259   1.940 165.593
  2852.0 -12.997  35.975 -999.25   0.270 484.858   1.948 164.723
