~Version Information
 VERS.                         2.0 : CWLS log ASCII Standard -VERSION 2.0
 WRAP.                          NO : One line per depth step
~Well Information Block
#MNEM.UNIT            Data Type                      Information
#---------    --------------------   ----------------------------
 STRT.FT                         1 : 
 STOP.FT                     10900 : 
 STEP.FT                         1 : 
 NULL.                     -999.25 : 
 COMP.         TRANSCO EXPLORATION : COMPANY
 WELL.           OCS G-3546 NO.B-6 : WELL
 FLD .                   VERMILION : FIELD
 AREA.                   VERMILION : OFFSHORE AREA
 BLK .                          58 : OFFSHORE BLOCK
 CNTY.                             : COUNTY
 STAT.                             : STATE
 NATI.                      U.S.A. : NATION
 DATE.                 25-DEC-1981 : DATE OF FIRST LOG RUN
 API .                177054050600 : API
 UWI .                        1107 : UNIQUE WELL NUM
 LATI.               29 20' 20.04" : LATITUDE
 LONG.              -92 29'  1.32" : LONGITUDE
 CORD.    Lambert, South Louisiana Zone : MAP PROJECTION
 XLOC.FT              1633470.0000 : X LOCATION
 YLOC.FT               246314.0000 : Y LOCATION
 UNIT.                        FEET : UNIT OF DATA
~Curve Information Block
#MNEM.UNIT             API CODE                Curve Description
#---------    --------------------   ----------------------------
 DEPT.FT                           :  1 Depth
 SP  .MV                           :  2 Spontaneous Potential
 GR  .GAPI                         :  3 Gamma Ray
 NPHI.PU                           :  4 Neutron Porosity Sandstone
 RES .OHMM                         :  5 Resistivity
 DTS .US/F                         :  6 Shear Sonic, Extended to Datum
 RHOB.G/CC                         :  7 Density,Extended to Datum
 DT  .US/F                         :  8 Sonic,Extended to Datum
~Parameter Information Block
#MNEM.UNIT                Value                      Description
#---------    --------------------   ----------------------------
 EDF .FT                 -999.2500 : DRILLING FLOOR
 EGL .FT                       0.0 : GROUND LEVEL
 EKB .FT                   96.0000 : KELLY BUSHING
 ERF .                   Sea Level : ELEV REFERENCE
 LMF .                          KB : LOG MEASURED FROM
 RUN .                           1 : ========================LOGGING RUN
 DATE.                 25-DEC-1981 : DATE OF LOG RUN
 TLI .FT                       800 : TOP OF LOG RUN
 BLI .FT                      3500 : BOTTOM OF LOG RUN
 DFD .LBSG                  9.5000 : MUD DENSITY
 RMS .OHMS                  0.4199 : MUD RESISTIVITY
 MST .DEGF                 63.0000 : MUD TEMPERATURE
 RMFS.OHMS                  0.3499 : MUD FILTRATE RESISITIVITY
 MFST.DEGF                 63.0000 : MUD FILTRATE TEMPERATURE
 BHT .DEGF                109.0000 : BOTTOM HOLE TEMPERATURE
 RUN .                           2 : ========================LOGGING RUN
 DATE.                 12-JAN-1982 : DATE OF LOG RUN
 TLI .FT                      3500 : TOP OF LOG RUN
 BLI .FT                     10000 : BOTTOM OF LOG RUN
 DFD .LBSG                 13.5000 : MUD DENSITY
 RMS .OHMS                  0.6299 : MUD RESISTIVITY
 MST .DEGF                 50.0000 : MUD TEMPERATURE
 RMFS.OHMS                  0.3799 : MUD FILTRATE RESISITIVITY
 MFST.DEGF                 50.0000 : MUD FILTRATE TEMPERATURE
 BHT .DEGF                240.0000 : BOTTOM HOLE TEMPERATURE
 RUN .                           3 : ========================LOGGING RUN
 DATE.                  3-JAN-1982 : DATE OF LOG RUN
 TLI .FT                     10000 : TOP OF LOG RUN
 BLI .FT                     10900 : BOTTOM OF LOG RUN
 DFD .LBSG                 17.2000 : MUD DENSITY
 RMS .OHMS                  0.7500 : MUD RESISTIVITY
 MST .DEGF                 66.0000 : MUD TEMPERATURE
 RMFS.OHMS                  0.3700 : MUD FILTRATE RESISITIVITY
 MFST.DEGF                 66.0000 : MUD FILTRATE TEMPERATURE
 BHT .DEGF                240.0000 : BOTTOM HOLE TEMPERATURE
~ASCII        SP      GR    NPHI     RES     DTS    RHOB      DT
# ...
   745.0 -999.25 -999.25 -999.25 -999.25 695.332   1.595 179.669
   746.0 -999.25 -999.25 -999.25 -999.25 694.944   1.596 179.635
   747.0 -999.25 -999.25 -999.25 -999.25 694.557   1.597 179.602
   748.0 -999.25 -999.25 -999.25 -999.25 694.169   1.598 179.568
   749.0 -999.25 -999.25 -999.25 -999.25 693.782   1.599 179.534
   750.0 -999.25 -999.25 -999.25 -999.25 693.395   1.600 179.501
   751.0 -999.25 -999.25 -999.25 -999.25 693.009   1.601 179.467
   752.0 -999.25 -999.25 -999.25 -999.25 692.623   1.601 179.433
   753.0 -999.25 -999.25 -999.25 -999.25 692.237   1.602 179.400
   754.0 -999.25 -999.25 -999.25 -999.25 691.851   1.603 179.366
   755.0 -999.25 -999.25 -999.25 -999.25 691.466   1.604 179.332
   756.0 -999.25 -999.25 -999.25 -999.25 691.081   1.605 179.299
   757.0 -999.25 -999.25 -999.25 -999.25 690.696   1.606 179.265
   758.0 -999.25 -999.25 -999.25 -999.25 690.312   1.607 179.231
   759.0 -999.25 -999.25 -999.25 -999.25 689.927   1.608 179.198
   760.0 -999.25 -999.25 -999.25 -999.25 689.543   1.609 179.164
   761.0 -999.25 -999.25 -999.25 -999.25 689.160   1.610 179.130
   762.0 -999.25 -999.25 -999.25 -999.25 688.777   1.611 179.097
   763.0 -999.25 -999.25 -999.25 -999.25 688.393   1.612 179.063
   764.0 -999.25 -999.25 -999.25 -999.25 688.011   1.613 179.029
   765.0 -999.25 -999.25 -999.25 -999.25 687.628   1.614 178.996
   766.0 -999.25 -999.25 -999.25 -999.25 687.246   1.615 178.962
   767.0 -999.25 -999.25 -999.25 -999.25 686.864   1.616 178.928
   768.0 -999.25 -999.25 -999.25 -999.25 686.482   1.617 178.895
   769.0 -999.25 -999.25 -999.25 -999.25 686.101   1.618 178.861
   770.0 -999.25 -999.25 -999.25 -999.25 685.720   1.619 178.827
   771.0 -999.25 -999.25 -999.25 -999.25 685.339   1.620 178.794
   772.0 -999.25 -999.25 -999.25 -999.25 684.959   1.621 178.760
   773.0 -999.25 -999.25 -999.25 -999.25 684.578   1.622 178.726
   774.0 -999.25 -999.25 -999.25 -999.25 684.199   1.623 178.693
   775.0 -999.25 -999.25 -999.25 -999.25 683.819   1.624 178.659
   776.0 -999.25 -999.25 -999.25 -999.25 683.439   1.625 178.625
   777.0 -999.25 -999.25 -999.25 -999.25 683.060   1.626 178.592
   778.0 -999.25 -999.25 -999.25 -999.25 682.681   1.627 178.558
   779.0 -999.25 -999.25 -999.25 -999.25 682.303   1.628 178.524
   780.0 -999.25 -999.25 -999.25 -999.25 681.924   1.629 178.491
   781.0 -999.25 -999.25 -999.25 -999.25 681.547   1.630 178.457
   782.0 -999.25 -999.25 -999.25 -999.25 681.169   1.631 178.423
   783.0 -999.25 -999.25 -999.25 -999.25 680.791   1.632 178.390
   784.0 -999.25 -999.25 -999.25 -999.25 680.414   1.633 178.356
   785.0 -999.25 -999.25 -999.25 -999.25 680.037   1.634 178.322
   786.0 -999.25 -999.25 -999.25 -999.25 679.660   1.635 178.289
   787.0 -999.25 -999.25 -999.25 -999.25 679.284   1.636 178.255
   788.0 -999.25 -999.25 -999.25 -999.25 678.908   1.637 178.221
   789.0 -999.25 -999.25 -999.25 -999.25 678.532   1.637 178.188
   790.0 -999.25 -999.25 -999.25 -999.25 678.157   1.638 178.154
   791.0 -999.25 -999.25 -999.25 -999.25 677.781   1.639 178.120
   792.0 -999.25 -999.25 -999.25 -999.25 677.406   1.640 178.087
   793.0 -999.25 -999.25 -999.25 -999.25 677.031   1.641 178.053
   794.0 -999.25 -999.25 -999.25 -999.25 676.657   1.642 178.019
   795.0 -999.25 -999.25 -999.25 -999.25 676.283   1.643 177.986
   796.0 -999.25 -999.25 -999.25 -999.25 675.909   1.644 177.952
   797.0 -999.25 -999.25 -999.25 -999.25 675.535   1.645 177.918
   798.0 -999.25 -999.25 -999.25 -999.25 675.162   1.646 177.885
   799.0 -999.25 -999.25 -999.25 -999.25 674.789   1.647 177.851
   800.0 -999.25 -999.25 -999.25   1.788 674.416   1.648 177.817
   801.0 -999.25  39.702 -999.25   1.759 594.244   1.649 177.784
   802.0 -13.944  39.351 -999.25   1.679 593.272   1.650 177.750
   803.0 -14.065  40.889 -999.25   1.563 595.913   1.651 177.716
   804.0 -14.195  43.690 -999.25   1.509 600.999   1.652 177.683
   805.0 -14.326  44.831 -999.25   1.544 602.976   1.653 177.649
   806.0 -14.450  45.188 -999.25   1.838 603.402   1.654 177.616
   807.0 -14.522  45.283 -999.25   1.954 603.288   1.655 177.582
   808.0 -14.298  45.263 -999.25   1.869 602.938   1.656 177.548
   809.0 -14.075  45.141 -999.25   1.709 602.378   1.657 177.515
   810.0 -13.917  45.157 -999.25   1.635 602.102   1.658 177.481
   811.0 -13.821  46.182 -999.25   1.702 603.898   1.659 177.447
   812.0 -13.726  48.529 -999.25   1.798 608.608   1.660 177.414
   813.0 -13.777  53.800 -999.25   1.908 620.293   1.661 177.380
   814.0 -13.984  57.130 -999.25   1.999 627.974   1.662 177.346
   815.0 -14.183  56.518 -999.25   2.145 626.110   1.663 177.313
   816.0 -14.221  57.620 -999.25   2.201 628.542   1.664 177.279
   817.0 -14.259  64.963 -999.25   2.159 650.210   1.665 177.245
   818.0 -14.289  75.548 -999.25   2.083 667.751   1.666 177.212
   819.0 -14.292  80.455 -999.25   2.020 667.383   1.667 177.178
   820.0 -14.693  77.218 -999.25   1.968 667.016   1.668 177.144
   821.0 -14.998  72.668 -999.25   2.001 666.649   1.669 177.111
   822.0 -14.490  75.877 -999.25   2.054 666.282   1.670 177.077
   823.0 -14.038  75.975 -999.25   2.004 665.915   1.671 177.043
   824.0 -13.810  72.155 -999.25   1.905 665.549   1.672 177.010
   825.0 -13.473  67.456 -999.25   1.832 656.904   1.673 176.976
   826.0 -13.055  67.301 -999.25   1.828 655.895   1.674 176.942
   827.0 -12.477  69.816 -999.25   1.806 664.451   1.674 176.909
   828.0 -12.440  65.844 -999.25   1.829 649.120   1.675 176.875
   829.0 -13.229  58.689 -999.25   1.834 626.945   1.676 176.841
   830.0 -13.232  53.727 -999.25   1.781 614.645   1.677 176.808
   831.0 -13.434  58.701 -999.25   1.805 626.317   1.678 176.774
   832.0 -14.304  63.674 -999.25   1.799 641.004   1.679 176.740
   833.0 -13.729  64.168 -999.25   1.757 642.170   1.680 176.707
   834.0 -12.556  65.169 -999.25   1.754 644.898   1.681 176.673
   835.0 -13.302  62.940 -999.25   1.751 637.737   1.682 176.639
   836.0 -13.510  61.507 -999.25   1.742 633.060   1.683 176.606
   837.0 -13.258  61.331 -999.25   1.787 632.193   1.684 176.572
   838.0 -13.455  62.352 -999.25   1.762 634.934   1.685 176.538
   839.0 -13.868  64.061 -999.25   1.784 639.775   1.686 176.505
   840.0 -15.136  64.034 -999.25   1.819 639.349   1.687 176.471
   841.0 -15.073  60.159 -999.25   1.859 627.346   1.688 176.437
   842.0 -14.565  57.055 -999.25   1.937 618.593   1.689 176.404
   843.0 -13.749  56.190 -999.25   2.030 616.158   1.690 176.370
   844.0 -14.890  51.547 -999.25   2.105 605.459   1.691 176.336
   845.0 -13.792  44.779 -999.25   2.218 590.678   1.692 176.303
   846.0 -13.599  40.384 -999.25   2.283 582.151   1.693 176.269
   847.0 -14.177  38.543 -999.25   2.162 578.474   1.694 176.235
   848.0 -14.180  38.998 -999.25   1.965 579.018   1.695 176.202
   849.0 -14.183  41.022 -999.25   1.865 582.446   1.696 176.168
   850.0 -14.769  43.640 -999.25   1.794 586.990   1.697 176.134
   851.0 -13.949  46.496 -999.25   1.763 592.278   1.698 176.101
   852.0 -14.887  48.269 -999.25   1.770 595.620   1.699 176.067
   853.0 -15.389  48.888 -999.25   1.813 596.694   1.700 176.033
   854.0 -14.904  52.700 -999.25   1.912 604.799   1.701 176.000
   855.0 -14.207  56.701 -999.25   2.031 613.528   1.702 175.966
   856.0 -14.913  57.079 -999.25   2.179 614.119   1.703 175.932
   857.0 -13.684  54.831 -999.25   2.284 608.433   1.704 175.899
   858.0 -14.384  52.795 -999.25   2.268 603.748   1.705 175.865
   859.0 -15.024  53.370 -999.25   2.135 604.665   1.706 175.831
   860.0 -15.159  60.272 -999.25   1.939 621.392   1.707 175.798
   861.0 -15.163  68.267 -999.25   1.707 647.475   1.708 175.764
   862.0 -14.855  70.785 -999.25   1.791 651.818   1.709 175.730
   863.0 -15.687  69.111 -999.25   1.875 650.243   1.710 175.697
   864.0 -17.088  67.387 -999.25   1.917 642.871   1.710 175.663
   865.0 -16.722  71.702 -999.25   2.046 650.750   1.711 175.630
   866.0 -16.271  73.594 -999.25   2.217 650.395   1.712 175.596
   867.0 -15.967  76.704 -999.25   2.270 650.039   1.713 175.562
   868.0 -15.751  76.393 -999.25   2.150 649.684   1.714 175.529
