~Version Information
 VERS.                         2.0 : CWLS log ASCII Standard -VERSION 2.0
 WRAP.                          NO : One line per depth step
~Well Information Block
#MNEM.UNIT            Data Type                      Information
#---------    --------------------   ----------------------------
 STRT.FT                         1 : 
 STOP.FT                     10900 : 
 STEP.FT                         1 : 
 NULL.                     -999.25 : 
 COMP.         TRANSCO EXPLORATION : COMPANY
 WELL.           OCS G-3546 NO.B-6 : WELL
 FLD .                   VERMILION : FIELD
 AREA.                   VERMILION : OFFSHORE AREA
 BLK .                          58 : OFFSHORE BLOCK
 CNTY.                             : COUNTY
 STAT.                             : STATE
 NATI.                      U.S.A. : NATION
 DATE.                 25-DEC-1981 : DATE OF FIRST LOG RUN
 API .                177054050600 : API
 UWI .                        1107 : UNIQUE WELL NUM
 LATI.               29 20' 20.04" : LATITUDE
 LONG.              -92 29'  1.32" : LONGITUDE
 CORD.    Lambert, South Louisiana Zone : MAP PROJECTION
 XLOC.FT              1633470.0000 : X LOCATION
 YLOC.FT               246314.0000 : Y LOCATION
 UNIT.                        FEET : UNIT OF DATA
~Curve Information Block
#MNEM.UNIT             API CODE                Curve Description
#---------    --------------------   ----------------------------
 DEPT.FT                           :  1 Depth
 SP  .MV                           :  2 Spontaneous Potential
 GR  .GAPI                         :  3 Gamma Ray
 NPHI.PU                           :  4 Neutron Porosity Sandstone
 RES .OHMM                         :  5 Resistivity
 DTS .US/F                         :  6 Shear Sonic, Extended to Datum
 RHOB.G/CC                         :  7 Density,Extended to Datum
 DT  .US/F                         :  8 Sonic,Extended to Datum
~Parameter Information Block
#MNEM.UNIT                Value                      Description
#---------    --------------------   ----------------------------
 EDF .FT                 -999.2500 : DRILLING FLOOR
 EGL .FT                       0.0 : GROUND LEVEL
 EKB .FT                   96.0000 : KELLY BUSHING
 ERF .                   Sea Level : ELEV REFERENCE
 LMF .                          KB : LOG MEASURED FROM
 RUN .                           1 : ========================LOGGING RUN
 DATE.                 25-DEC-1981 : DATE OF LOG RUN
 TLI .FT                       800 : TOP OF LOG RUN
 BLI .FT                      3500 : BOTTOM OF LOG RUN
 DFD .LBSG                  9.5000 : MUD DENSITY
 RMS .OHMS                  0.4199 : MUD RESISTIVITY
 MST .DEGF                 63.0000 : MUD TEMPERATURE
 RMFS.OHMS                  0.3499 : MUD FILTRATE RESISITIVITY
 MFST.DEGF                 63.0000 : MUD FILTRATE TEMPERATURE
 BHT .DEGF                109.0000 : BOTTOM HOLE TEMPERATURE
 RUN .                           2 : ========================LOGGING RUN
 DATE.                 12-JAN-1982 : DATE OF LOG RUN
 TLI .FT                      3500 : TOP OF LOG RUN
 BLI .FT                     10000 : BOTTOM OF LOG RUN
 DFD .LBSG                 13.5000 : MUD DENSITY
 RMS .OHMS                  0.6299 : MUD RESISTIVITY
 MST .DEGF                 50.0000 : MUD TEMPERATURE
 RMFS.OHMS                  0.3799 : MUD FILTRATE RESISITIVITY
 MFST.DEGF                 50.0000 : MUD FILTRATE TEMPERATURE
 BHT .DEGF                240.0000 : BOTTOM HOLE TEMPERATURE
 RUN .                           3 : ========================LOGGING RUN
 DATE.                  3-JAN-1982 : DATE OF LOG RUN
 TLI .FT                     10000 : TOP OF LOG RUN
 BLI .FT                     10900 : BOTTOM OF LOG RUN
 DFD .LBSG                 17.2000 : MUD DENSITY
 RMS .OHMS                  0.7500 : MUD RESISTIVITY
 MST .DEGF                 66.0000 : MUD TEMPERATURE
 RMFS.OHMS                  0.3700 : MUD FILTRATE RESISITIVITY
 MFST.DEGF                 66.0000 : MUD FILTRATE TEMPERATURE
 BHT .DEGF                240.0000 : BOTTOM HOLE TEMPERATURE
~ASCII        SP      GR    NPHI     RES     DTS    RHOB      DT
# ...
  9425.0  31.889  71.863  44.159   0.969 213.495   2.324 102.220
  9426.0  32.222  70.672  45.511   0.964 215.288   2.337 102.753
  9427.0  32.274  72.691  46.540   0.964 228.074   2.320 106.453
  9428.0  32.211  75.025  46.172   0.968 233.549   2.289 107.988
  9429.0  32.148  75.945  44.605   0.981 215.304   2.329 102.757
  9430.0  32.292  75.377  44.275   1.015 204.501   2.342  99.498
  9431.0  32.444  74.446  44.404   1.073 204.941   2.353  99.633
  9432.0  32.600  71.939  45.212   1.125 205.904   2.363  99.928
  9433.0  32.769  72.543  42.860   1.127 210.999   2.370 101.473
  9434.0  32.939  74.316  42.694   1.081 218.621   2.366 103.733
  9435.0  32.871  72.454  43.387   1.026 219.571   2.346 104.011
  9436.0  32.607  72.196  43.613   0.994 214.545   2.342 102.532
  9437.0  31.753  73.314  44.033   0.988 209.224   2.360 100.938
  9438.0  31.354  74.764  44.618   1.009 215.538   2.371 102.826
  9439.0  31.248  75.307  43.457   1.033 221.959   2.313 104.704
  9440.0  31.256  74.850  42.222   1.026 228.188   2.351 106.486
  9441.0  30.823  73.831  42.028   1.019 221.768   2.364 104.649
  9442.0  30.897  72.827  42.254   1.047 205.027   2.387  99.660
  9443.0  31.224  72.642  41.288   1.103 198.327   2.385  97.578
  9444.0  31.366  72.314  40.968   1.188 196.405   2.378  96.971
  9445.0  31.466  66.783  39.377   1.264 194.300   2.357  96.302
  9446.0  31.235  63.736  37.027   1.337 179.956   2.352  91.600
  9447.0  30.825  63.996  38.979   1.401 175.244   2.364  90.000
  9448.0  30.538  64.844  41.315   1.472 172.381   2.370  89.041
  9449.0  30.547  64.959  39.229   1.546 172.440   2.381  89.062
  9450.0  30.556  67.599  37.626   1.588 173.162   2.396  89.312
  9451.0  30.775  68.875  36.610   1.603 173.798   2.395  89.503
  9452.0  31.035  68.057  34.967   1.583 171.683   2.375  88.772
  9453.0  31.295  70.177  36.747   1.552 165.364   2.403  86.550
  9454.0  31.595  72.041  41.633   1.408 168.228   2.387  87.563
  9455.0  31.913  73.296  44.196   1.127 185.067   2.316  93.305
  9456.0  32.161  75.997  45.974   1.002 212.216   2.300 101.838
  9457.0  31.988  76.992  44.695   0.916 229.785   2.292 106.936
  9458.0  31.814  76.773  40.678   0.874 229.909   2.299 106.971
  9459.0  31.929  74.664  42.731   0.877 222.752   2.321 104.933
  9460.0  32.148  72.770  45.730   0.875 224.484   2.328 105.431
  9461.0  32.429  73.855  47.937   0.865 232.218   2.363 107.618
  9462.0  32.390  75.335  46.188   0.858 235.166   2.352 108.436
  9463.0  31.487  75.289  45.275   0.872 221.565   2.350 104.590
  9464.0  30.585  73.726  44.118   0.901 204.852   2.349  99.666
  9465.0  29.899  72.131  42.259   0.927 199.653   2.344  98.200
  9466.0  29.385  72.279  41.733   0.941 220.575   2.335 104.641
  9467.0  29.981  74.097  42.419   0.960 245.862   2.322 111.560
  9468.0  30.576  72.790  42.024   0.968 237.070   2.319 109.040
  9469.0  31.153  71.222  41.691   0.983 214.911   2.353 102.641
  9470.0  31.725  73.338  43.214   1.012 204.923   2.360  99.628
  9471.0  31.992  76.751  45.548   1.031 206.997   2.357 100.262
  9472.0  31.579  77.051  45.770   1.033 222.968   2.362 104.995
  9473.0  31.538  77.338  44.660   1.029 230.229   2.365 107.061
  9474.0  31.970  76.616  43.805   1.015 222.200   2.368 104.773
  9475.0  31.812  74.598  42.874   0.988 223.835   2.377 105.244
  9476.0  31.219  74.169  45.129   0.946 231.361   2.374 107.378
  9477.0  31.057  74.874  45.667   0.911 226.797   2.341 106.091
  9478.0  31.172  75.883  44.985   0.909 224.536   2.339 105.446
  9479.0  31.290  76.034  43.385   0.919 224.308   2.331 105.380
  9480.0  31.411  74.948  45.007   0.942 222.768   2.335 104.937
  9481.0  31.516  71.675  46.004   0.981 220.195   2.348 104.192
  9482.0  31.620  68.969  44.484   1.031 217.080   2.375 103.281
  9483.0  31.052  67.661  42.315   1.090 212.519   2.359 101.937
  9484.0  30.419  68.107  43.115   1.142 207.599   2.360 100.592
  9485.0  30.012  69.287  42.839   1.134 214.045   2.334 102.626
  9486.0  29.830  70.010  42.945   1.084 225.782   2.337 106.097
  9487.0  29.087  70.069  42.812   1.091 225.667   2.336 106.237
  9488.0  28.723  67.506  40.511   1.057 193.883   2.337  96.669
  9489.0  29.413  69.994  44.573   0.993 200.681   2.301  98.683
  9490.0  30.288  73.952  46.120   1.001 227.942   2.300 106.617
  9491.0  30.967  73.185  44.316   1.029 231.481   2.316 107.461
  9492.0  31.245  74.767  43.295   0.968 232.759   2.280 107.768
  9493.0  31.432  74.885  42.360   0.960 221.734   2.331 104.639
  9494.0  31.642  73.651  41.683   1.023 208.055   2.345 100.584
  9495.0  31.353  73.186  42.144   1.069 212.127   2.333 101.812
  9496.0  30.633  74.594  44.471   1.079 212.598   2.325 102.084
  9497.0  30.317  75.662  44.008   1.075 208.323   2.336 100.866
  9498.0  30.685  76.029  44.889   1.061 214.434   2.332 102.625
  9499.0  31.052  76.190  44.555   1.044 225.773   2.313 105.849
  9500.0  31.237  77.846  44.982   1.040 227.103   2.312 106.188
  9501.0  31.311  80.573  45.776   1.027 225.926   2.326 105.843
  9502.0  31.385  80.275  45.471   1.039 223.947   2.314 105.277
  9503.0  31.375  77.166  45.353   1.047 222.781   2.294 104.941
  9504.0  31.306  74.367  43.242   1.055 226.644   2.295 106.052
  9505.0  31.259  73.381  40.665   1.058 233.319   2.317 107.943
  9506.0  31.671  73.629  40.964   1.093 229.491   2.317 106.853
  9507.0  32.083  73.117  42.680   1.154 207.767   2.308 100.497
  9508.0  32.486  70.835  40.323   1.203 181.787   2.379  92.215
  9509.0  32.883  71.850  40.585   1.222 190.403   2.379  95.049
  9510.0  33.242  75.139  43.957   1.186 208.553   2.355 100.735
  9511.0  32.989  76.092  45.531   1.078 230.866   2.335 107.240
  9512.0  32.735  76.326  45.381   0.981 228.869   2.355 106.678
  9513.0  32.287  74.859  43.870   0.968 207.927   2.374 100.545
  9514.0  31.792  72.528  41.955   0.987 208.809   2.376 100.813
  9515.0  31.305  73.463  41.544   1.009 233.537   2.366 108.019
  9516.0  30.931  75.760  43.179   1.020 230.187   2.353 107.171
  9517.0  30.563  77.428  44.318   1.000 202.408   2.363  99.043
  9518.0  31.170  79.588  45.372   0.954 216.751   2.369 103.254
  9519.0  31.777  80.582  45.938   0.931 228.373   2.345 106.538
  9520.0  32.364  79.398  47.239   0.918 236.053   2.333 108.681
  9521.0  32.916  78.194  48.701   0.921 238.489   2.346 109.349
  9522.0  33.468  77.010  47.371   0.933 236.281   2.342 108.744
  9523.0  33.495  77.655  46.560   0.933 231.620   2.348 107.451
  9524.0  33.412  77.747  45.945   0.936 226.424   2.354 105.985
  9525.0  33.014  75.314  44.779   0.931 225.035   2.345 105.588
  9526.0  32.463  76.949  43.795   0.935 226.508   2.338 106.009
  9527.0  32.757  75.486  43.465   0.958 226.146   2.325 105.906
  9528.0  33.133  74.398  41.129   0.978 220.340   2.327 104.234
  9529.0  33.230  71.437  42.782   0.977 216.075   2.284 102.985
  9530.0  33.238  70.181  44.358   0.958 222.221   2.263 104.779
  9531.0  33.331  70.853  47.054   0.928 236.123   2.287 108.700
  9532.0  33.541  71.276  48.732   0.890 250.872   2.263 112.662
  9533.0  33.149  69.398  45.399   0.913 240.604   2.333 109.925
  9534.0  32.462  67.762  43.177   0.969 210.304   2.336 101.264
  9535.0  32.087  69.723  42.409   1.057 213.630   2.310 102.260
  9536.0  31.618  69.121  41.708   1.150 204.768   2.344  99.596
  9537.0  31.061  67.734  39.917   1.222 190.059   2.344  95.066
  9538.0  30.503  68.506  38.919   1.279 203.911   2.343  99.570
  9539.0  30.259  68.891  38.432   1.310 190.683   2.363  95.432
  9540.0  30.520  66.671  38.689   1.306 187.071   2.344  94.203
  9541.0  30.767  65.718  39.374   1.379 194.863   2.349  96.680
  9542.0  30.621  65.564  40.097   1.419 193.068   2.348  96.137
  9543.0  30.474  66.157  40.067   1.410 192.509   2.359  95.988
  9544.0  30.352  69.162  41.521   1.367 194.300   2.386  96.590
  9545.0  30.255  72.748  41.675   1.264 196.261   2.332  97.238
  9546.0  30.921  72.840  42.538   1.127 210.289   2.351 101.448
  9547.0  32.093  73.189  43.807   1.011 230.677   2.324 107.187
  9548.0  33.131  74.433  44.688   0.919 228.557   2.322 106.590
