~Version Information
 VERS.                         2.0 : CWLS log ASCII Standard -VERSION 2.0
 WRAP.                          NO : One line per depth step
~Well Information Block
#MNEM.UNIT            Data Type                      Information
#---------    --------------------   ----------------------------
 STRT.FT                         1 : 
 STOP.FT                     10900 : 
 STEP.FT                         1 : 
 NULL.                     -999.25 : 
 COMP.         TRANSCO EXPLORATION : COMPANY
 WELL.           OCS G-3546 NO.B-6 : WELL
 FLD .                   VERMILION : FIELD
 AREA.                   VERMILION : OFFSHORE AREA
 BLK .                          58 : OFFSHORE BLOCK
 CNTY.                             : COUNTY
 STAT.                             : STATE
 NATI.                      U.S.A. : NATION
 DATE.                 25-DEC-1981 : DATE OF FIRST LOG RUN
 API .                177054050600 : API
 UWI .                        1107 : UNIQUE WELL NUM
 LATI.               29 20' 20.04" : LATITUDE
 LONG.              -92 29'  1.32" : LONGITUDE
 CORD.    Lambert, South Louisiana Zone : MAP PROJECTION
 XLOC.FT              1633470.0000 : X LOCATION
 YLOC.FT               246314.0000 : Y LOCATION
 UNIT.                        FEET : UNIT OF DATA
~Curve Information Block
#MNEM.UNIT             API CODE                Curve Description
#---------    --------------------   ----------------------------
 DEPT.FT                           :  1 Depth
 SP  .MV                           :  2 Spontaneous Potential
 GR  .GAPI                         :  3 Gamma Ray
 NPHI.PU                           :  4 Neutron Porosity Sandstone
 RES .OHMM                         :  5 Resistivity
 DTS .US/F                         :  6 Shear Sonic, Extended to Datum
 RHOB.G/CC                         :  7 Density,Extended to Datum
 DT  .US/F                         :  8 Sonic,Extended to Datum
~Parameter Information Block
#MNEM.UNIT                Value                      Description
#---------    --------------------   ----------------------------
 EDF .FT                 -999.2500 : DRILLING FLOOR
 EGL .FT                       0.0 : GROUND LEVEL
 EKB .FT                   96.0000 : KELLY BUSHING
 ERF .                   Sea Level : ELEV REFERENCE
 LMF .                          KB : LOG MEASURED FROM
 RUN .                           1 : ========================LOGGING RUN
 DATE.                 25-DEC-1981 : DATE OF LOG RUN
 TLI .FT                       800 : TOP OF LOG RUN
 BLI .FT                      3500 : BOTTOM OF LOG RUN
 DFD .LBSG                  9.5000 : MUD DENSITY
 RMS .OHMS                  0.4199 : MUD RESISTIVITY
 MST .DEGF                 63.0000 : MUD TEMPERATURE
 RMFS.OHMS                  0.3499 : MUD FILTRATE RESISITIVITY
 MFST.DEGF                 63.0000 : MUD FILTRATE TEMPERATURE
 BHT .DEGF                109.0000 : BOTTOM HOLE TEMPERATURE
 RUN .                           2 : ========================LOGGING RUN
 DATE.                 12-JAN-1982 : DATE OF LOG RUN
 TLI .FT                      3500 : TOP OF LOG RUN
 BLI .FT                     10000 : BOTTOM OF LOG RUN
 DFD .LBSG                 13.5000 : MUD DENSITY
 RMS .OHMS                  0.6299 : MUD RESISTIVITY
 MST .DEGF                 50.0000 : MUD TEMPERATURE
 RMFS.OHMS                  0.3799 : MUD FILTRATE RESISITIVITY
 MFST.DEGF                 50.0000 : MUD FILTRATE TEMPERATURE
 BHT .DEGF                240.0000 : BOTTOM HOLE TEMPERATURE
 RUN .                           3 : ========================LOGGING RUN
 DATE.                  3-JAN-1982 : DATE OF LOG RUN
 TLI .FT                     10000 : TOP OF LOG RUN
 BLI .FT                     10900 : BOTTOM OF LOG RUN
 DFD .LBSG                 17.2000 : MUD DENSITY
 RMS .OHMS                  0.7500 : MUD RESISTIVITY
 MST .DEGF                 66.0000 : MUD TEMPERATURE
 RMFS.OHMS                  0.3700 : MUD FILTRATE RESISITIVITY
 MFST.DEGF                 66.0000 : MUD FILTRATE TEMPERATURE
 BHT .DEGF                240.0000 : BOTTOM HOLE TEMPERATURE
~ASCII        SP      GR    NPHI     RES     DTS    RHOB      DT
# ...
  1365.0 -11.514  43.970 -999.25   0.583 459.947   1.972 160.226
  1366.0 -10.994  41.713 -999.25   0.597 466.946   1.961 161.739
  1367.0 -10.342  40.012 -999.25   0.606 473.642   1.953 163.057
  1368.0 -10.335  39.086 -999.25   0.612 473.993   1.950 163.280
  1369.0 -10.274  39.309 -999.25   0.610 467.459   1.954 162.273
  1370.0 -10.103  38.626 -999.25   0.602 467.728   1.952 162.440
  1371.0 -10.751  37.496 -999.25   0.594 471.269   1.948 163.113
  1372.0 -10.667  37.988 -999.25   0.587 487.640   1.941 165.486
  1373.0 -10.905  37.563 -999.25   0.577 505.282   1.933 167.980
  1374.0 -12.641  35.070 -999.25   0.566 528.507   1.924 171.088
  1375.0 -12.187  33.091 -999.25   0.556 559.734   1.912 175.019
  1376.0 -11.420  31.850 -999.25   0.549 584.873   1.904 177.994
  1377.0 -11.846  32.220 -999.25   0.539 602.709   1.898 180.010
  1378.0 -10.979  36.260 -999.25   0.525 613.530   1.895 181.197
  1379.0 -10.772  42.376 -999.25   0.523 602.261   1.911 179.060
  1380.0 -10.514  44.128 -999.25   0.521 575.209   1.925 175.602
  1381.0 -10.139  43.697 -999.25   0.528 529.915   1.940 170.153
  1382.0  -9.626  43.226 -999.25   0.550 472.597   1.962 162.359
  1383.0  -9.641  41.509 -999.25   0.556 482.289   1.952 164.129
  1384.0 -10.623  38.481 -999.25   0.562 486.077   1.942 165.234
  1385.0 -11.539  37.848 -999.25   0.562 490.661   1.939 165.936
  1386.0 -11.690  38.097 -999.25   0.560 491.604   1.939 166.070
  1387.0 -10.510  40.662 -999.25   0.554 531.282   1.929 170.996
  1388.0 -11.502  44.645 -999.25   0.554 547.962   1.935 172.265
  1389.0 -11.500  46.349 -999.25   0.555 539.015   1.944 170.785
  1390.0  -9.851  47.798 -999.25   0.559 551.560   1.944 172.031
  1391.0  -9.633  50.448 -999.25   0.565 578.527   1.943 174.621
  1392.0  -9.196  59.322 -999.25   0.572 586.280   1.973 173.305
  1393.0  -8.529  64.810 -999.25   0.582 610.638   1.989 174.341
  1394.0  -7.515  66.262 -999.25   0.603 626.250   1.991 175.489
  1395.0  -6.131  64.989 -999.25   0.649 599.716   1.993 173.144
  1396.0  -5.453  62.175 -999.25   0.730 566.064   1.991 170.291
  1397.0  -5.886  58.761 -999.25   0.834 468.928   2.017 158.571
  1398.0  -5.894  57.573 -999.25   0.973 363.285   2.076 141.193
  1399.0  -5.399  60.805 -999.25   1.086 394.342   2.068 146.219
  1400.0  -4.916  67.050 -999.25   1.167 644.959   1.988 177.125
  1401.0  -3.143  71.017 -999.25   1.225 551.621   2.041 165.775
  1402.0  -2.249  72.737 -999.25   1.273 546.791   2.052 164.653
  1403.0  -2.235  71.848 -999.25   1.328 521.965   2.058 161.884
  1404.0  -2.221  69.434 -999.25   1.399 459.627   2.071 154.390
  1405.0  -2.206  66.571 -999.25   1.475 602.778   1.998 173.036
  1406.0  -2.192  62.849 -999.25   1.533 569.864   1.992 170.585
  1407.0  -2.223  59.637 -999.25   1.558 402.839   2.056 147.988
  1408.0  -2.894  62.291 -999.25   1.543 361.368   2.096 139.908
  1409.0  -3.784  64.333 -999.25   1.511 406.335   2.075 147.469
  1410.0  -3.650  65.179 -999.25   1.460 494.806   2.032 160.584
  1411.0  -2.696  63.132 -999.25   1.406 546.162   2.001 167.748
  1412.0  -3.637  60.331 -999.25   1.362 431.936   2.042 152.660
  1413.0  -2.464  61.570 -999.25   1.334 394.867   2.069 146.209
  1414.0  -3.073  63.465 -999.25   1.321 395.399   2.077 145.853
  1415.0  -3.059  68.485 -999.25   1.328 432.339   2.080 150.616
  1416.0  -3.045  73.642 -999.25   1.326 466.079   2.088 154.205
  1417.0  -2.822  72.279 -999.25   1.302 472.153   2.082 155.226
  1418.0  -2.498  72.167 -999.25   1.241 456.808   2.089 153.079
  1419.0  -2.548  74.102 -999.25   1.153 448.298   2.098 151.620
  1420.0  -3.595  74.806 -999.25   1.096 455.253   2.094 152.645
  1421.0  -3.835  73.239 -999.25   1.103 460.606   2.091 153.422
  1422.0  -3.679  71.330 -999.25   1.125 448.552   2.088 152.191
  1423.0  -3.828  71.570 -999.25   1.173 440.901   2.093 150.960
  1424.0  -4.074  70.854 -999.25   1.211 422.694   2.099 148.387
  1425.0  -3.703  66.254 -999.25   1.234 475.486   2.045 157.695
  1426.0  -3.627  59.277 -999.25   1.229 468.165   2.017 158.487
  1427.0  -3.881  57.753 -999.25   1.137 440.541   2.026 154.655
  1428.0  -4.257  58.928 -999.25   1.044 437.858   2.031 153.990
  1429.0  -4.457  61.896 -999.25   0.946 437.924   2.043 153.325
  1430.0  -4.312  66.040 -999.25   0.925 442.255   2.061 152.896
  1431.0  -4.569  69.853 -999.25   0.938 469.020   2.066 155.775
  1432.0  -4.141  71.976 -999.25   0.995 503.166   2.064 159.636
  1433.0  -3.613  72.384 -999.25   1.062 499.686   2.068 159.032
  1434.0  -3.479  73.026 -999.25   1.074 505.778   2.069 159.590
  1435.0  -4.166  73.717 -999.25   1.058 523.480   2.062 161.833
  1436.0  -3.213  72.984 -999.25   1.031 538.410   2.055 163.687
  1437.0  -3.147  71.881 -999.25   1.019 548.428   2.044 165.318
  1438.0  -3.281  72.039 -999.25   1.032 551.806   2.043 165.659
  1439.0  -3.075  72.323 -999.25   1.038 518.640   2.059 161.534
  1440.0  -2.765  72.711 -999.25   1.054 521.888   2.060 161.798
  1441.0  -2.410  74.110 -999.25   1.074 532.716   2.058 162.968
  1442.0  -2.604  74.228 -999.25   1.090 593.765   2.035 169.912
  1443.0  -3.125  74.281 -999.25   1.092 558.940   2.048 166.065
  1444.0  -3.600  76.868 -999.25   1.100 526.526   2.060 162.210
  1445.0  -3.384  77.019 -999.25   1.092 519.208   2.064 161.300
  1446.0  -3.112  71.667 -999.25   1.089 532.318   2.048 163.535
  1447.0  -4.452  67.991 -999.25   1.069 556.236   2.017 167.677
  1448.0  -3.110  66.324 -999.25   0.945 579.621   2.001 170.867
  1449.0  -4.307  66.343 -999.25   0.877 553.868   2.010 167.917
  1450.0  -4.810  66.988 -999.25   0.832 512.811   2.029 162.664
  1451.0  -4.656  68.087 -999.25   0.810 491.303   2.044 159.503
  1452.0  -4.336  69.698 -999.25   0.799 500.681   2.048 160.295
  1453.0  -4.114  70.168 -999.25   0.809 511.666   2.046 161.584
  1454.0  -4.177  65.978 -999.25   0.840 510.161   2.025 162.645
  1455.0  -5.600  61.752 -999.25   0.843 540.504   1.993 167.687
  1456.0  -5.949  63.438 -999.25   0.798 549.824   1.997 168.382
  1457.0  -5.119  64.664 -999.25   0.753 536.425   2.008 166.385
  1458.0  -5.668  66.136 -999.25   0.756 522.031   2.021 164.146
  1459.0  -5.599  67.974 -999.25   0.767 521.302   2.030 163.508
  1460.0  -4.960  70.394 -999.25   0.782 548.408   2.031 166.080
  1461.0  -4.452  73.119 -999.25   0.815 630.334   2.021 173.820
  1462.0  -4.243  75.199 -999.25   0.850 686.379   2.008 178.886
  1463.0  -4.142  77.096 -999.25   0.878 684.833   2.008 178.749
  1464.0  -3.959  78.890 -999.25   0.884 676.125   2.010 177.972
  1465.0  -3.945  81.099 -999.25   0.867 684.156   2.008 178.689
  1466.0  -5.749  83.480 -999.25   0.833 687.385   2.007 178.974
  1467.0  -5.138  81.851 -999.25   0.846 625.825   2.025 173.211
  1468.0  -4.660  79.365 -999.25   0.881 558.955   2.048 166.067
  1469.0  -4.191  73.844 -999.25   0.905 521.688   2.062 161.610
  1470.0  -4.546  67.629 -999.25   0.925 522.928   2.026 163.882
  1471.0  -3.339  64.365 -999.25   0.975 579.788   1.989 171.656
  1472.0  -2.982  58.640 -999.25   1.058 397.228   2.050 147.525
  1473.0  -3.307  52.671 -999.25   1.193 393.751   2.029 148.173
  1474.0  -4.105  50.476 -999.25   1.259 555.581   1.944 172.399
  1475.0  -5.181  50.991 -999.25   1.232 513.432   1.962 166.949
  1476.0  -6.389  52.581 -999.25   1.066 448.632   1.997 157.319
  1477.0  -7.588  53.320 -999.25   0.956 450.863   1.999 157.512
  1478.0  -8.366  54.644 -999.25   0.849 510.450   1.976 165.729
  1479.0  -8.307  55.914 -999.25   0.810 523.982   1.975 167.184
  1480.0  -7.701  54.618 -999.25   0.779 517.886   1.973 166.727
  1481.0  -8.065  49.481 -999.25   0.745 518.811   1.954 168.023
  1482.0  -8.676  43.890 -999.25   0.701 541.866   1.927 172.226
  1483.0  -8.622  38.701 -999.25   0.659 596.159   1.900 179.278
  1484.0  -9.082  40.144 -999.25   0.620 614.067   1.895 181.255
  1485.0  -9.292  43.615 -999.25   0.594 617.685   1.901 181.106
  1486.0  -8.627  46.255 -999.25   0.587 639.101   1.903 182.732
  1487.0  -8.697  45.675 -999.25   0.604 631.811   1.903 182.130
  1488.0  -9.329  42.757 -999.25   0.620 587.580   1.908 177.974
