~Version Information
 VERS.                         2.0 : CWLS log ASCII Standard -VERSION 2.0
 WRAP.                          NO : One line per depth step
~Well Information Block
#MNEM.UNIT            Data Type                      Information
#---------    --------------------   ----------------------------
 STRT.FT                         1 : 
 STOP.FT                     10900 : 
 STEP.FT                         1 : 
 NULL.                     -999.25 : 
 COMP.         TRANSCO EXPLORATION : COMPANY
 WELL.           OCS G-3546 NO.B-6 : WELL
 FLD .                   VERMILION : FIELD
 AREA.                   VERMILION : OFFSHORE AREA
 BLK .                          58 : OFFSHORE BLOCK
 CNTY.                             : COUNTY
 STAT.                             : STATE
 NATI.                      U.S.A. : NATION
 DATE.                 25-DEC-1981 : DATE OF FIRST LOG RUN
 API .                177054050600 : API
 UWI .                        1107 : UNIQUE WELL NUM
 LATI.               29 20' 20.04" : LATITUDE
 LONG.              -92 29'  1.32" : LONGITUDE
 CORD.    Lambert, South Louisiana Zone : MAP PROJECTION
 XLOC.FT              1633470.0000 : X LOCATION
 YLOC.FT               246314.0000 : Y LOCATION
 UNIT.                        FEET : UNIT OF DATA
~Curve Information Block
#MNEM.UNIT             API CODE                Curve Description
#---------    --------------------   ----------------------------
 DEPT.FT                           :  1 Depth
 SP  .MV                           :  2 Spontaneous Potential
 GR  .GAPI                         :  3 Gamma Ray
 NPHI.PU                           :  4 Neutron Porosity Sandstone
 RES .OHMM                         :  5 Resistivity
 DTS .US/F                         :  6 Shear Sonic, Extended to Datum
 RHOB.G/CC                         :  7 Density,Extended to Datum
 DT  .US/F                         :  8 Sonic,Extended to Datum
~Parameter Information Block
#MNEM.UNIT                Value                      Description
#---------    --------------------   ----------------------------
 EDF .FT                 -999.2500 : DRILLING FLOOR
 EGL .FT                       0.0 : GROUND LEVEL
 EKB .FT                   96.0000 : KELLY BUSHING
 ERF .                   Sea Level : ELEV REFERENCE
 LMF .                          KB : LOG MEASURED FROM
 RUN .                           1 : ========================LOGGING RUN
 DATE.                 25-DEC-1981 : DATE OF LOG RUN
 TLI .FT                       800 : TOP OF LOG RUN
 BLI .FT                      3500 : BOTTOM OF LOG RUN
 DFD .LBSG                  9.5000 : MUD DENSITY
 RMS .OHMS                  0.4199 : MUD RESISTIVITY
 MST .DEGF                 63.0000 : MUD TEMPERATURE
 RMFS.OHMS                  0.3499 : MUD FILTRATE RESISITIVITY
 MFST.DEGF                 63.0000 : MUD FILTRATE TEMPERATURE
 BHT .DEGF                109.0000 : BOTTOM HOLE TEMPERATURE
 RUN .                           2 : ========================LOGGING RUN
 DATE.                 12-JAN-1982 : DATE OF LOG RUN
 TLI .FT                      3500 : TOP OF LOG RUN
 BLI .FT                     10000 : BOTTOM OF LOG RUN
 DFD .LBSG                 13.5000 : MUD DENSITY
 RMS .OHMS                  0.6299 : MUD RESISTIVITY
 MST .DEGF                 50.0000 : MUD TEMPERATURE
 RMFS.OHMS                  0.3799 : MUD FILTRATE RESISITIVITY
 MFST.DEGF                 50.0000 : MUD FILTRATE TEMPERATURE
 BHT .DEGF                240.0000 : BOTTOM HOLE TEMPERATURE
 RUN .                           3 : ========================LOGGING RUN
 DATE.                  3-JAN-1982 : DATE OF LOG RUN
 TLI .FT                     10000 : TOP OF LOG RUN
 BLI .FT                     10900 : BOTTOM OF LOG RUN
 DFD .LBSG                 17.2000 : MUD DENSITY
 RMS .OHMS                  0.7500 : MUD RESISTIVITY
 MST .DEGF                 66.0000 : MUD TEMPERATURE
 RMFS.OHMS                  0.3700 : MUD FILTRATE RESISITIVITY
 MFST.DEGF                 66.0000 : MUD FILTRATE TEMPERATURE
 BHT .DEGF                240.0000 : BOTTOM HOLE TEMPERATURE
~ASCII        SP      GR    NPHI     RES     DTS    RHOB      DT
# ...
  8061.0  11.986  68.949  40.885   0.849 193.028   2.411  96.868
  8062.0  12.876  67.595  43.044   0.866 207.038   2.406 101.193
  8063.0  12.584  67.707  42.165   0.852 225.895   2.407 106.843
  8064.0  12.848  67.168  40.544   0.824 208.055   2.406 101.508
  8065.0  14.068  67.326  39.408   0.819 209.058   2.405 101.674
  8066.0  15.235  68.878  38.170   0.823 207.805   2.416 101.156
  8067.0  16.397  70.652  40.275   0.841 198.474   2.417  98.122
  8068.0  17.519  71.997  42.608   0.868 220.418   2.408 104.658
  8069.0  18.335  71.702  43.762   0.885 232.190   2.416 107.924
  8070.0  18.914  70.502  43.765   0.880 209.029   2.401 101.105
  8071.0  19.999  69.757  43.514   0.877 220.647   2.390 104.429
  8072.0  20.767  69.215  44.133   0.880 248.234   2.374 111.982
  8073.0  20.765  68.688  43.582   0.887 239.950   2.366 109.762
  8074.0  20.965  67.854  42.756   0.902 208.955   2.365 100.857
  8075.0  21.268  68.554  41.621   0.914 223.637   2.348 105.188
  8076.0  22.116  70.710  45.643   0.895 247.979   2.331 111.900
  8077.0  22.861  72.629  44.434   0.844 233.741   2.329 108.042
  8078.0  22.453  73.751  43.222   0.813 250.704   2.339 112.618
  8079.0  22.045  74.296  44.023   0.790 263.173   2.350 115.820
  8080.0  21.950  73.961  44.393   0.775 252.716   2.361 113.143
  8081.0  21.948  72.990  44.222   0.787 243.359   2.351 110.668
  8082.0  22.115  71.091  43.346   0.829 246.530   2.349 111.516
  8083.0  18.507  69.604  41.832   0.880 266.110   2.334 116.873
  8084.0  14.986  69.053  40.715   0.905 249.865   2.334 113.159
  8085.0  16.892  70.825  39.177   0.916 227.117   2.313 106.665
  8086.0  19.686  74.073  39.897   0.914 229.875   2.328 107.106
  8087.0  22.516  78.082  43.971   0.904 230.920   2.350 107.255
  8088.0  22.848  81.144  45.563   0.843 228.547   2.331 106.587
  8089.0  22.969  81.712  45.046   0.816 235.173   2.326 108.438
  8090.0  23.091  79.443  43.298   0.823 240.636   2.330 109.933
  8091.0  23.476  76.576  44.007   0.839 239.020   2.348 109.494
  8092.0  23.983  79.140  45.985   0.860 238.737   2.334 109.417
  8093.0  24.055  79.487  47.307   0.880 244.333   2.338 110.930
  8094.0  23.961  78.767  47.350   0.892 250.036   2.325 112.442
  8095.0  23.919  77.893  45.899   0.895 256.452   2.296 114.110
  8096.0  23.831  76.665  42.075   0.888 263.693   2.300 115.951
  8097.0  22.880  75.259  42.720   0.889 277.597   2.308 119.367
  8098.0  22.247  76.669  44.930   0.880 269.256   2.354 117.336
  8099.0  22.133  79.014  42.692   0.824 247.498   2.377 111.773
  8100.0  23.023  79.712  44.467   0.787 241.785   2.344 110.244
  8101.0  23.536  77.922  44.276   0.766 249.509   2.338 112.304
  8102.0  23.866  75.887  43.751   0.756 254.869   2.379 113.702
  8103.0  24.167  75.463  42.174   0.747 253.124   2.384 113.250
  8104.0  24.357  74.834  42.529   0.744 245.647   2.372 111.281
  8105.0  24.527  73.645  45.034   0.745 254.567   2.369 113.624
  8106.0  24.263  74.732  46.000   0.747 268.152   2.367 117.063
  8107.0  23.312  75.022  46.432   0.749 255.592   2.357 113.889
  8108.0  21.870  76.546  46.177   0.733 233.882   2.356 108.081
  8109.0  20.796  76.875  45.903   0.730 252.607   2.342 113.123
  8110.0  19.325  74.671  45.888   0.733 263.858   2.356 116.197
  8111.0  18.148  74.135  45.038   0.745 251.647   2.367 113.215
  8112.0  18.864  74.861  44.844   0.754 243.297   2.370 110.904
  8113.0  19.612  73.503  43.238   0.760 231.934   2.390 107.691
  8114.0  20.452  74.149  43.089   0.756 234.394   2.397 108.273
  8115.0  21.085  73.348  43.814   0.753 253.696   2.365 113.398
  8116.0  21.568  73.922  44.478   0.754 259.820   2.375 114.972
  8117.0  21.464  73.494  43.616   0.756 246.692   2.385 111.559
  8118.0  19.689  74.135  43.719   0.762 231.222   2.386 107.482
  8119.0  18.002  76.381  44.211   0.770 226.165   2.385 106.256
  8120.0  17.074  76.763  42.855   0.777 244.255   2.379 111.389
  8121.0  17.193  74.861  42.873   0.786 243.940   2.403 111.289
  8122.0  17.720  73.855  44.346   0.799 229.210   2.404 107.156
  8123.0  18.680  74.819  44.358   0.808 205.032   2.381  99.907
  8124.0  19.326  75.431  44.106   0.817 205.221   2.366  99.892
  8125.0  19.900  75.603  43.072   0.820 223.862   2.341 105.366
  8126.0  20.424  76.086  42.613   0.820 236.706   2.337 108.913
  8127.0  20.857  77.884  45.640   0.820 243.125   2.329 110.605
  8128.0  21.129  78.342  48.472   0.824 240.733   2.317 109.960
  8129.0  21.227  79.885  47.554   0.829 246.639   2.339 111.545
  8130.0  21.211  81.541  46.404   0.832 249.029   2.345 112.177
  8131.0  20.941  81.223  45.784   0.839 247.467   2.327 111.764
  8132.0  20.769  78.416  45.538   0.820 246.692   2.332 111.568
  8133.0  21.180  78.255  47.022   0.793 246.452   2.338 111.495
  8134.0  21.591  76.717  48.933   0.773 246.567   2.339 111.526
  8135.0  21.683  74.515  48.362   0.762 245.898   2.335 111.348
  8136.0  21.626  71.658  46.533   0.769 243.818   2.336 110.792
  8137.0  21.569  69.784  46.260   0.778 246.753   2.360 111.575
  8138.0  21.354  70.214  46.675   0.783 251.751   2.366 112.892
  8139.0  20.998  70.316  45.619   0.789 253.802   2.354 113.426
  8140.0  20.642  70.501  46.773   0.797 251.904   2.359 112.957
  8141.0  20.565  70.534  48.852   0.800 249.753   2.339 112.403
  8142.0  20.571  71.156  49.320   0.806 247.124   2.342 111.700
  8143.0  20.567  71.704  47.583   0.821 242.720   2.365 110.515
  8144.0  19.674  71.034  44.893   0.841 226.737   2.359 106.193
  8145.0  18.690  68.835  45.750   0.856 227.640   2.385 106.562
  8146.0  17.418  65.320  43.972   0.853 241.311   2.372 110.512
  8147.0  15.755  61.483  44.032   0.830 251.793   2.353 113.520
  8148.0  12.213  57.482  46.209   0.809 271.952   2.418 119.129
  8149.0   3.228  54.044  39.318   0.801 278.287   2.469 121.956
  8150.0  -3.531  50.433  32.883   0.813 234.803   2.461 111.391
  8151.0  -3.762  51.797  32.526   0.823 188.213   2.400  96.988
  8152.0  -3.350  54.692  35.620   0.818 181.404   2.387  94.620
  8153.0  -7.056  52.823  36.354   0.783 202.914   2.351 102.191
  8154.0 -12.673  51.198  36.274   0.640 213.604   2.328 106.253
  8155.0 -18.941  51.053  36.578   0.523 213.729   2.335 107.091
  8156.0 -24.309  48.021  37.811   0.457 215.303   2.305 107.901
  8157.0 -26.995  43.239  37.490   0.365 216.923   2.277 108.405
  8158.0 -25.549  37.614  37.238   0.333 213.212   2.256 107.245
  8159.0 -23.700  35.149  36.078   0.302 198.819   2.261 102.600
  8160.0 -24.191  35.398  35.689   0.276 207.236   2.262 105.345
  8161.0 -25.298  36.987  35.498   0.255 218.489   2.261 108.891
  8162.0 -25.491  39.379  34.683   0.243 214.257   2.260 107.574
  8163.0 -23.990  41.448  35.358   0.246 211.409   2.275 106.676
  8164.0 -22.372  43.048  34.391   0.262 209.081   2.276 105.936
  8165.0 -21.017  44.727  35.160   0.300 207.259   2.271 105.303
  8166.0 -23.034  45.228  35.820   0.340 200.465   2.281 103.143
  8167.0 -25.814  41.365  37.542   0.360 193.127   2.262 100.695
  8168.0 -26.704  37.993  37.113   0.370 205.071   2.262 104.647
  8169.0 -24.822  35.724  35.775   0.367 212.925   2.244 107.155
  8170.0 -22.123  34.224  34.981   0.316 211.440   2.243 106.686
  8171.0 -23.483  35.261  35.537   0.257 212.433   2.250 107.000
  8172.0 -24.781  36.962  37.498   0.253 225.012   2.278 110.883
  8173.0 -21.954  37.216  34.307   0.259 222.093   2.269 109.997
  8174.0 -18.840  36.737  32.349   0.271 212.585   2.245 106.708
  8175.0 -18.959  36.056  32.490   0.277 214.907   2.232 107.450
  8176.0 -20.302  36.363  33.436   0.278 208.223   2.224 105.516
  8177.0 -21.490  38.369  35.380   0.255 207.968   2.223 105.580
  8178.0 -22.424  41.165  37.735   0.228 213.342   2.208 107.286
  8179.0 -23.358  44.758  39.279   0.219 213.677   2.192 107.392
  8180.0 -22.077  48.575  39.775   0.225 205.582   2.201 104.812
  8181.0 -14.615  53.366  39.860   0.252 197.930   2.284 101.445
  8182.0  -3.708  57.031  39.962   0.308 189.500   2.339  97.316
  8183.0   6.080  58.354  43.630   0.357 179.215   2.334  92.701
  8184.0  12.605  58.619  43.385   0.431 172.680   2.342  89.719
