~Version Information
 VERS.                         2.0 : CWLS log ASCII Standard -VERSION 2.0
 WRAP.                          NO : One line per depth step
~Well Information Block
#MNEM.UNIT            Data Type                      Information
#---------    --------------------   ----------------------------
 STRT.FT                         1 : 
 STOP.FT                     10900 : 
 STEP.FT                         1 : 
 NULL.                     -999.25 : 
 COMP.         TRANSCO EXPLORATION : COMPANY
 WELL.           OCS G-3546 NO.B-6 : WELL
 FLD .                   VERMILION : FIELD
 AREA.                   VERMILION : OFFSHORE AREA
 BLK .                          58 : OFFSHORE BLOCK
 CNTY.                             : COUNTY
 STAT.                             : STATE
 NATI.                      U.S.A. : NATION
 DATE.                 25-DEC-1981 : DATE OF FIRST LOG RUN
 API .                177054050600 : API
 UWI .                        1107 : UNIQUE WELL NUM
 LATI.               29 20' 20.04" : LATITUDE
 LONG.              -92 29'  1.32" : LONGITUDE
 CORD.    Lambert, South Louisiana Zone : MAP PROJECTION
 XLOC.FT              1633470.0000 : X LOCATION
 YLOC.FT               246314.0000 : Y LOCATION
 UNIT.                        FEET : UNIT OF DATA
~Curve Information Block
#MNEM.UNIT             API CODE                Curve Description
#---------    --------------------   ----------------------------
 DEPT.FT                           :  1 Depth
 SP  .MV                           :  2 Spontaneous Potential
 GR  .GAPI                         :  3 Gamma Ray
 NPHI.PU                           :  4 Neutron Porosity Sandstone
 RES .OHMM                         :  5 Resistivity
 DTS .US/F                         :  6 Shear Sonic, Extended to Datum
 RHOB.G/CC                         :  7 Density,Extended to Datum
 DT  .US/F                         :  8 Sonic,Extended to Datum
~Parameter Information Block
#MNEM.UNIT                Value                      Description
#---------    --------------------   ----------------------------
 EDF .FT                 -999.2500 : DRILLING FLOOR
 EGL .FT                       0.0 : GROUND LEVEL
 EKB .FT                   96.0000 : KELLY BUSHING
 ERF .                   Sea Level : ELEV REFERENCE
 LMF .                          KB : LOG MEASURED FROM
 RUN .                           1 : ========================LOGGING RUN
 DATE.                 25-DEC-1981 : DATE OF LOG RUN
 TLI .FT                       800 : TOP OF LOG RUN
 BLI .FT                      3500 : BOTTOM OF LOG RUN
 DFD .LBSG                  9.5000 : MUD DENSITY
 RMS .OHMS                  0.4199 : MUD RESISTIVITY
 MST .DEGF                 63.0000 : MUD TEMPERATURE
 RMFS.OHMS                  0.3499 : MUD FILTRATE RESISITIVITY
 MFST.DEGF                 63.0000 : MUD FILTRATE TEMPERATURE
 BHT .DEGF                109.0000 : BOTTOM HOLE TEMPERATURE
 RUN .                           2 : ========================LOGGING RUN
 DATE.                 12-JAN-1982 : DATE OF LOG RUN
 TLI .FT                      3500 : TOP OF LOG RUN
 BLI .FT                     10000 : BOTTOM OF LOG RUN
 DFD .LBSG                 13.5000 : MUD DENSITY
 RMS .OHMS                  0.6299 : MUD RESISTIVITY
 MST .DEGF                 50.0000 : MUD TEMPERATURE
 RMFS.OHMS                  0.3799 : MUD FILTRATE RESISITIVITY
 MFST.DEGF                 50.0000 : MUD FILTRATE TEMPERATURE
 BHT .DEGF                240.0000 : BOTTOM HOLE TEMPERATURE
 RUN .                           3 : ========================LOGGING RUN
 DATE.                  3-JAN-1982 : DATE OF LOG RUN
 TLI .FT                     10000 : TOP OF LOG RUN
 BLI .FT                     10900 : BOTTOM OF LOG RUN
 DFD .LBSG                 17.2000 : MUD DENSITY
 RMS .OHMS                  0.7500 : MUD RESISTIVITY
 MST .DEGF                 66.0000 : MUD TEMPERATURE
 RMFS.OHMS                  0.3700 : MUD FILTRATE RESISITIVITY
 MFST.DEGF                 66.0000 : MUD FILTRATE TEMPERATURE
 BHT .DEGF                240.0000 : BOTTOM HOLE TEMPERATURE
~ASCII        SP      GR    NPHI     RES     DTS    RHOB      DT
# ...
  6821.0  24.743  75.660  47.805   0.694 279.702   2.233 119.959
  6822.0  24.763  73.581  48.982   0.700 272.398   2.263 118.188
  6823.0  24.876  72.718  49.216   0.696 271.195   2.286 117.874
  6824.0  25.160  74.599  47.509   0.685 270.093   2.293 117.561
  6825.0  25.479  76.396  47.129   0.666 274.085   2.252 118.518
  6826.0  26.067  76.690  48.584   0.652 278.128   2.232 119.494
  6827.0  26.357  76.592  49.502   0.649 282.087   2.232 120.438
  6828.0  26.296  77.183  49.579   0.651 283.341   2.251 120.734
  6829.0  25.997  78.015  48.729   0.657 284.599   2.239 121.030
  6830.0  25.424  79.836  47.800   0.673 282.562   2.216 120.550
  6831.0  24.825  78.971  50.256   0.691 279.469   2.209 119.858
  6832.0  24.607  77.453  50.612   0.697 276.471   2.208 119.166
  6833.0  24.272  76.324  49.406   0.695 273.651   2.219 118.527
  6834.0  24.306  76.448  50.796   0.695 271.269   2.216 117.936
  6835.0  24.992  75.870  48.032   0.707 269.275   2.196 117.346
  6836.0  24.928  75.895  46.579   0.720 267.478   2.215 116.907
  6837.0  24.869  78.253  44.679   0.727 266.789   2.227 116.740
  6838.0  24.990  78.846  43.932   0.726 266.978   2.229 116.772
  6839.0  25.068  78.386  48.010   0.721 268.382   2.225 117.120
  6840.0  24.512  77.821  51.940   0.714 269.567   2.228 117.468
  6841.0  23.956  76.989  49.671   0.701 270.651   2.218 117.810
  6842.0  23.048  75.916  49.042   0.688 271.449   2.204 118.132
  6843.0  22.084  70.326  48.436   0.695 285.950   2.176 121.749
  6844.0  15.765  62.087  44.674   0.729 320.641   2.239 130.469
  6845.0   5.440  55.295  39.711   0.750 303.706   2.263 128.380
  6846.0  -3.352  50.060  37.287   0.619 224.528   2.255 109.075
  6847.0  -7.215  49.573  36.911   0.513 211.417   2.259 105.580
  6848.0   1.173  52.639  37.266   0.493 211.945   2.289 104.670
  6849.0   9.695  59.110  40.972   0.491 231.235   2.329 109.292
  6850.0  11.636  60.331  39.792   0.506 257.737   2.326 116.253
  6851.0   8.903  57.143  38.537   0.618 240.620   2.304 112.032
  6852.0   3.992  49.926  37.838   0.852 211.262   2.307 104.095
  6853.0  -4.378  47.199  35.293   0.822 206.797   2.319 103.753
  6854.0 -11.617  47.016  37.845   0.579 221.030   2.283 109.117
  6855.0 -16.370  47.154  40.623   0.461 237.929   2.179 114.699
  6856.0 -19.078  46.895  43.048   0.373 250.223   2.166 118.179
  6857.0 -20.964  46.572  39.018   0.308 247.658   2.172 117.465
  6858.0 -22.016  46.345  37.430   0.283 245.047   2.179 116.731
  6859.0 -20.801  45.600  37.822   0.276 242.441   2.159 115.992
  6860.0 -19.606  44.512  37.841   0.255 239.857   2.148 115.254
  6861.0 -20.258  44.598  38.295   0.228 240.729   2.137 115.504
  6862.0 -20.909  45.339  39.569   0.213 242.998   2.115 116.151
  6863.0 -18.975  46.203  40.303   0.201 245.598   2.147 116.886
  6864.0 -13.398  47.909  42.786   0.212 249.883   2.160 117.727
  6865.0  -7.473  50.463  43.171   0.243 256.189   2.222 118.569
  6866.0  -7.220  52.786  41.213   0.299 260.248   2.194 119.613
  6867.0 -13.718  53.005  39.056   0.342 253.923   2.177 118.881
  6868.0 -16.677  51.775  39.942   0.371 248.820   2.168 117.789
  6869.0 -17.161  50.017  41.908   0.342 245.455   2.179 116.846
  6870.0 -17.152  48.453  40.525   0.297 246.668   2.176 117.187
  6871.0 -15.547  49.630  40.281   0.276 263.232   2.177 121.661
  6872.0 -13.969  51.508  43.104   0.269 259.635   2.178 120.457
  6873.0 -12.421  52.112  40.695   0.274 254.277   2.192 118.774
  6874.0  -7.687  54.844  40.493   0.322 255.164   2.255 118.308
  6875.0  -3.826  56.795  39.742   0.412 239.362   2.297 113.386
  6876.0  -6.332  53.403  39.049   0.486 225.161   2.249 109.610
  6877.0 -11.160  50.329  39.981   0.525 238.209   2.206 114.093
  6878.0 -16.195  46.885  39.303   0.471 249.936   2.172 118.100
  6879.0 -17.784  43.582  40.016   0.307 262.778   2.148 121.591
  6880.0 -17.666  40.537  41.422   0.266 263.726   2.156 121.843
  6881.0 -18.276  39.031  40.890   0.218 262.991   2.149 121.648
  6882.0 -18.738  39.976  40.529   0.184 259.854   2.141 120.809
  6883.0 -18.559  41.511  40.076   0.186 257.933   2.137 120.291
  6884.0 -15.756  42.771  39.554   0.206 253.821   2.208 119.134
  6885.0 -10.901  44.978  39.715   0.228 260.483   2.224 120.196
  6886.0  -7.206  49.411  40.429   0.259 260.436   2.171 119.623
  6887.0  -6.684  53.909  41.669   0.312 256.296   2.124 118.439
  6888.0 -10.619  55.126  42.835   0.321 254.222   2.135 118.464
  6889.0 -12.996  55.745  42.843   0.298 253.896   2.153 118.731
  6890.0 -11.278  57.978  43.571   0.280 255.833   2.181 118.997
  6891.0  -5.435  63.587  45.744   0.282 254.020   2.247 117.634
  6892.0   2.564  66.978  44.503   0.354 252.514   2.281 116.060
  6893.0   7.046  66.907  42.997   0.414 245.569   2.279 113.543
  6894.0   9.209  65.942  45.269   0.486 237.215   2.286 110.935
  6895.0  11.272  67.274  47.094   0.550 233.851   2.286 109.708
  6896.0  14.021  69.647  47.205   0.588 251.843   2.284 114.241
  6897.0  15.262  68.439  44.413   0.606 277.139   2.267 120.476
  6898.0  12.056  66.857  43.441   0.591 285.425   2.261 122.949
  6899.0  11.986  66.169  42.956   0.570 263.322   2.286 117.507
  6900.0  13.565  66.031  41.698   0.551 251.148   2.312 114.110
  6901.0  14.456  64.076  40.012   0.548 260.553   2.272 116.435
  6902.0  12.223  61.379  37.977   0.565 244.048   2.222 112.384
  6903.0  11.608  61.966  39.699   0.578 215.235   2.254 104.222
  6904.0  18.135  63.858  43.429   0.599 199.010   2.263  98.415
  6905.0  18.558  66.001  45.662   0.628 228.495   2.260 107.196
  6906.0  18.844  68.026  47.588   0.652 236.395   2.249 109.372
  6907.0  18.463  69.643  45.778   0.647 241.472   2.282 110.814
  6908.0  18.911  69.043  43.938   0.626 244.421   2.282 111.548
  6909.0  19.960  69.544  42.590   0.611 252.730   2.291 113.605
  6910.0  21.551  70.211  43.166   0.612 265.422   2.328 116.625
  6911.0  23.267  69.159  45.554   0.630 256.868   2.284 114.217
  6912.0  24.985  69.324  47.368   0.655 262.260   2.215 115.590
  6913.0  25.005  71.612  44.715   0.675 271.440   2.275 117.873
  6914.0  24.173  73.559  44.156   0.677 266.545   2.275 116.664
  6915.0  24.466  74.148  44.352   0.667 269.082   2.278 117.293
  6916.0  24.215  73.062  44.517   0.661 298.393   2.288 124.202
  6917.0  22.800  70.915  43.616   0.648 281.129   2.273 120.250
  6918.0  22.525  68.885  44.089   0.635 255.724   2.284 113.995
  6919.0  22.545  68.782  45.023   0.641 251.349   2.297 112.852
  6920.0  22.980  68.831  43.373   0.660 255.389   2.295 113.838
  6921.0  23.218  68.337  43.836   0.685 243.960   2.285 110.829
  6922.0  21.429  67.262  44.079   0.691 234.961   2.274 108.581
  6923.0  20.352  67.550  43.858   0.700 228.234   2.251 106.834
  6924.0  20.169  68.225  45.394   0.705 235.591   2.257 108.918
  6925.0  20.111  67.870  47.341   0.703 257.354   2.308 114.732
  6926.0  21.141  68.052  48.708   0.705 268.889   2.289 117.493
  6927.0  22.171  68.451  47.466   0.716 247.350   2.260 111.824
  6928.0  22.462  66.912  45.716   0.741 253.263   2.238 113.333
  6929.0  22.464  65.802  43.442   0.775 262.188   2.333 115.617
  6930.0  22.430  67.638  44.462   0.815 257.164   2.300 114.339
  6931.0  22.760  70.736  46.875   0.842 247.912   2.248 111.882
  6932.0  23.090  71.471  48.161   0.860 253.892   2.197 113.449
  6933.0  23.222  72.791  49.098   0.881 261.577   2.211 115.418
  6934.0  23.242  74.548  50.245   0.893 262.640   2.229 115.686
  6935.0  23.151  73.970  49.339   0.896 262.741   2.194 115.711
  6936.0  22.933  71.684  46.960   0.897 261.446   2.142 115.385
  6937.0  22.636  67.433  45.575   0.938 251.045   2.102 112.707
  6938.0  22.592  62.681  44.148   1.003 240.990   2.190 110.029
  6939.0  22.718  60.841  45.886   1.071 220.976   2.245 104.419
  6940.0  22.704  59.624  46.877   1.130 199.625   2.302  97.985
  6941.0  22.636  58.760  45.757   1.159 197.576   2.237  97.341
  6942.0  22.679  59.648  44.971   1.153 208.831   2.268 100.819
  6943.0  22.853  62.142  43.809   1.138 221.802   2.253 104.658
  6944.0  23.028  64.509  42.761   1.130 224.765   2.251 105.511
