~Version Information
 VERS.                         2.0 : CWLS log ASCII Standard -VERSION 2.0
 WRAP.                          NO : One line per depth step
~Well Information Block
#MNEM.UNIT            Data Type                      Information
#---------    --------------------   ----------------------------
 STRT.FT                         1 : 
 STOP.FT                     10900 : 
 STEP.FT                         1 : 
 NULL.                     -999.25 : 
 COMP.         TRANSCO EXPLORATION : COMPANY
 WELL.           OCS G-3546 NO.B-6 : WELL
 FLD .                   VERMILION : FIELD
 AREA.                   VERMILION : OFFSHORE AREA
 BLK .                          58 : OFFSHORE BLOCK
 CNTY.                             : COUNTY
 STAT.                             : STATE
 NATI.                      U.S.A. : NATION
 DATE.                 25-DEC-1981 : DATE OF FIRST LOG RUN
 API .                177054050600 : API
 UWI .                        1107 : UNIQUE WELL NUM
 LATI.               29 20' 20.04" : LATITUDE
 LONG.              -92 29'  1.32" : LONGITUDE
 CORD.    Lambert, South Louisiana Zone : MAP PROJECTION
 XLOC.FT              1633470.0000 : X LOCATION
 YLOC.FT               246314.0000 : Y LOCATION
 UNIT.                        FEET : UNIT OF DATA
~Curve Information Block
#MNEM.UNIT             API CODE                Curve Description
#---------    --------------------   ----------------------------
 DEPT.FT                           :  1 Depth
 SP  .MV                           :  2 Spontaneous Potential
 GR  .GAPI                         :  3 Gamma Ray
 NPHI.PU                           :  4 Neutron Porosity Sandstone
 RES .OHMM                         :  5 Resistivity
 DTS .US/F                         :  6 Shear Sonic, Extended to Datum
 RHOB.G/CC                         :  7 Density,Extended to Datum
 DT  .US/F                         :  8 Sonic,Extended to Datum
~Parameter Information Block
#MNEM.UNIT                Value                      Description
#---------    --------------------   ----------------------------
 EDF .FT                 -999.2500 : DRILLING FLOOR
 EGL .FT                       0.0 : GROUND LEVEL
 EKB .FT                   96.0000 : KELLY BUSHING
 ERF .                   Sea Level : ELEV REFERENCE
 LMF .                          KB : LOG MEASURED FROM
 RUN .                           1 : ========================LOGGING RUN
 DATE.                 25-DEC-1981 : DATE OF LOG RUN
 TLI .FT                       800 : TOP OF LOG RUN
 BLI .FT                      3500 : BOTTOM OF LOG RUN
 DFD .LBSG                  9.5000 : MUD DENSITY
 RMS .OHMS                  0.4199 : MUD RESISTIVITY
 MST .DEGF                 63.0000 : MUD TEMPERATURE
 RMFS.OHMS                  0.3499 : MUD FILTRATE RESISITIVITY
 MFST.DEGF                 63.0000 : MUD FILTRATE TEMPERATURE
 BHT .DEGF                109.0000 : BOTTOM HOLE TEMPERATURE
 RUN .                           2 : ========================LOGGING RUN
 DATE.                 12-JAN-1982 : DATE OF LOG RUN
 TLI .FT                      3500 : TOP OF LOG RUN
 BLI .FT                     10000 : BOTTOM OF LOG RUN
 DFD .LBSG                 13.5000 : MUD DENSITY
 RMS .OHMS                  0.6299 : MUD RESISTIVITY
 MST .DEGF                 50.0000 : MUD TEMPERATURE
 RMFS.OHMS                  0.3799 : MUD FILTRATE RESISITIVITY
 MFST.DEGF                 50.0000 : MUD FILTRATE TEMPERATURE
 BHT .DEGF                240.0000 : BOTTOM HOLE TEMPERATURE
 RUN .                           3 : ========================LOGGING RUN
 DATE.                  3-JAN-1982 : DATE OF LOG RUN
 TLI .FT                     10000 : TOP OF LOG RUN
 BLI .FT                     10900 : BOTTOM OF LOG RUN
 DFD .LBSG                 17.2000 : MUD DENSITY
 RMS .OHMS                  0.7500 : MUD RESISTIVITY
 MST .DEGF                 66.0000 : MUD TEMPERATURE
 RMFS.OHMS                  0.3700 : MUD FILTRATE RESISITIVITY
 MFST.DEGF                 66.0000 : MUD FILTRATE TEMPERATURE
 BHT .DEGF                240.0000 : BOTTOM HOLE TEMPERATURE
~ASCII        SP      GR    NPHI     RES     DTS    RHOB      DT
# ...
  4093.0 -20.925  54.113  43.322   0.201 309.795   2.133 133.225
  4094.0 -20.786  55.643  43.149   0.198 318.709   2.139 135.248
  4095.0 -21.767  56.376  42.415   0.193 323.837   2.125 136.388
  4096.0 -22.027  55.562  42.141   0.182 322.882   2.113 136.177
  4097.0 -21.720  54.112  42.969   0.169 314.657   2.107 134.335
  4098.0 -21.053  53.839  44.564   0.160 311.395   2.106 133.593
  4099.0 -18.570  55.390  45.401   0.154 312.138   2.112 133.446
  4100.0 -13.371  58.852  45.553   0.172 316.727   2.115 133.375
  4101.0  -5.428  63.617  46.657   0.190 314.651   2.117 131.272
  4102.0  -0.074  67.595  48.644   0.272 302.238   2.115 127.428
  4103.0  -5.158  69.829  50.291   0.329 299.494   2.098 127.795
  4104.0 -10.074  71.237  49.180   0.387 319.478   2.093 133.285
  4105.0 -11.821  71.910  44.908   0.391 301.488   2.107 129.579
  4106.0 -11.978  72.022  41.661   0.351 295.053   2.117 128.099
  4107.0  -8.399  72.796  42.578   0.325 287.159   2.129 125.510
  4108.0  -2.983  74.334  44.490   0.335 267.987   2.149 119.752
  4109.0   3.332  75.011  44.580   0.394 248.337   2.183 113.519
  4110.0   9.210  73.779  44.449   0.444 272.102   2.222 118.608
  4111.0  12.816  71.539  45.034   0.497 321.004   2.243 129.121
  4112.0  12.794  69.575  45.253   0.554 338.720   2.243 132.749
  4113.0  11.179  68.634  44.330   0.574 309.657   2.231 126.954
  4114.0  11.266  68.942  42.940   0.574 300.144   2.227 124.838
  4115.0  13.382  71.079  43.440   0.591 338.799   2.234 132.765
  4116.0  15.814  74.438  45.872   0.620 369.828   2.228 138.689
  4117.0  12.728  76.997  48.153   0.629 342.058   2.204 133.412
  4118.0   6.716  77.806  48.632   0.609 322.081   2.194 130.492
  4119.0   2.152  77.830  46.588   0.563 313.323   2.200 129.491
  4120.0  -1.516  77.375  44.982   0.522 310.947   2.196 129.678
  4121.0  -5.636  76.615  45.926   0.462 325.221   2.171 133.601
  4122.0 -10.106  75.238  48.313   0.431 347.494   2.147 139.156
  4123.0 -14.286  73.047  49.738   0.399 335.002   2.138 137.457
  4124.0 -17.273  70.396  49.584   0.350 334.589   2.135 137.997
  4125.0 -19.488  67.512  47.493   0.266 336.125   2.122 138.792
  4126.0 -21.042  64.614  45.586   0.206 340.572   2.110 139.991
  4127.0 -22.251  62.313  44.911   0.147 336.864   2.104 139.207
  4128.0 -23.834  60.856  45.156   0.145 329.676   2.101 137.665
  4129.0 -23.612  60.394  43.950   0.149 318.194   2.101 135.133
  4130.0 -22.209  60.943  42.132   0.154 304.007   2.105 131.883
  4131.0 -17.716  63.369  42.406   0.154 296.861   2.105 129.579
  4132.0  -9.237  68.707  45.683   0.163 291.078   2.099 126.575
  4133.0   3.253  76.667  50.402   0.216 325.185   2.075 131.853
  4134.0  17.206  82.479  54.890   0.271 405.421   2.042 144.887
  4135.0  23.955  83.771  57.199   0.343 416.274   2.032 146.662
  4136.0  22.515  81.772  56.140   0.482 363.502   2.071 137.523
  4137.0  20.693  79.874  53.347   0.554 333.698   2.124 131.740
  4138.0  20.234  78.643  51.312   0.589 354.573   2.155 135.842
  4139.0  18.309  78.688  49.865   0.601 374.951   2.168 139.619
  4140.0  12.282  77.740  47.800   0.645 325.960   2.182 130.330
  4141.0   5.940  74.735  45.615   0.690 317.848   2.199 129.803
  4142.0  -1.955  71.646  44.689   0.666 316.675   2.196 131.036
  4143.0  -8.130  70.555  44.827   0.621 290.055   2.175 126.112
  4144.0 -13.758  69.847  45.539   0.553 299.811   2.137 129.469
  4145.0 -18.063  68.314  46.829   0.420 322.609   2.110 135.484
  4146.0 -21.140  66.918  48.133   0.290 320.469   2.105 135.628
  4147.0 -21.777  66.122  49.091   0.191 304.784   2.109 132.064
  4148.0 -21.428  65.761  49.410   0.175 313.436   2.112 134.058
  4149.0 -22.631  65.788  48.713   0.181 360.129   2.109 143.988
  4150.0 -24.434  66.287  48.682   0.211 370.524   2.113 146.025
  4151.0 -23.915  67.171  50.192   0.253 308.222   2.126 132.863
  4152.0 -23.396  68.207  52.007   0.284 305.054   2.141 132.127
  4153.0 -22.253  68.284  51.815   0.288 325.054   2.139 136.656
  4154.0 -19.565  67.408  50.608   0.236 332.709   2.127 137.944
  4155.0 -16.803  65.934  49.773   0.196 325.588   2.125 135.845
  4156.0 -14.998  64.789  49.615   0.191 318.754   2.122 133.986
  4157.0 -12.823  64.230  49.512   0.196 319.281   2.119 133.677
  4158.0 -11.001  64.672  48.319   0.227 322.542   2.118 134.036
  4159.0 -12.498  65.117  47.241   0.266 327.484   2.122 135.394
  4160.0 -15.413  64.411  45.373   0.276 326.193   2.129 135.685
  4161.0 -19.922  63.047  44.212   0.244 310.315   2.131 133.024
  4162.0 -18.703  62.524  43.909   0.198 313.443   2.123 133.496
  4163.0 -15.362  63.330  45.552   0.193 323.212   2.124 135.016
  4164.0 -15.949  63.896  45.817   0.195 332.375   2.148 137.106
  4165.0 -17.280  63.447  44.584   0.230 330.260   2.164 136.914
  4166.0 -17.895  62.066  43.272   0.270 327.875   2.159 136.518
  4167.0 -17.824  60.667  43.513   0.293 313.391   2.143 133.296
  4168.0 -17.693  59.570  44.280   0.266 310.451   2.130 132.600
  4169.0 -17.526  58.918  44.662   0.246 321.240   2.117 134.984
  4170.0 -16.446  58.567  43.632   0.219 331.963   2.108 137.096
  4171.0 -15.325  58.829  42.768   0.195 318.623   2.116 133.975
  4172.0 -16.096  59.611  43.379   0.183 312.262   2.125 132.695
  4173.0 -16.467  60.750  45.782   0.180 311.072   2.140 132.492
  4174.0 -13.040  62.427  48.070   0.184 318.607   2.152 133.529
  4175.0  -8.607  64.716  49.214   0.194 323.495   2.146 133.761
  4176.0  -5.369  67.735  48.840   0.215 326.564   2.146 133.813
  4177.0  -2.972  69.600  47.785   0.267 338.894   2.154 135.937
  4178.0  -3.853  69.586  47.590   0.290 346.339   2.168 137.613
  4179.0  -7.441  67.968  47.363   0.286 344.667   2.149 137.965
  4180.0  -8.684  66.556  46.572   0.290 339.677   2.139 137.183
  4181.0  -8.821  66.415  45.622   0.273 337.976   2.136 136.857
  4182.0  -8.810  68.566  45.722   0.249 336.419   2.133 136.531
  4183.0  -7.862  71.304  46.353   0.257 338.031   2.128 136.683
  4184.0  -4.534  73.520  46.464   0.277 342.016   2.143 136.869
  4185.0  -0.624  73.854  46.172   0.287 330.581   2.188 133.786
  4186.0  -0.927  73.778  47.116   0.307 315.433   2.216 130.604
  4187.0  -2.890  73.487  48.501   0.356 322.393   2.208 132.465
  4188.0  -5.361  73.019  49.736   0.392 329.297   2.200 134.387
  4189.0  -6.706  72.300  49.296   0.390 331.984   2.186 135.201
  4190.0  -8.050  72.064  48.328   0.359 329.260   2.181 134.875
  4191.0  -8.439  72.218  47.769   0.315 327.647   2.168 134.602
  4192.0  -8.925  71.540  46.978   0.294 327.570   2.150 134.675
  4193.0  -9.979  70.298  46.098   0.266 327.003   2.161 134.747
  4194.0 -10.121  69.010  45.362   0.265 327.225   2.164 134.819
  4195.0  -9.379  68.298  45.357   0.288 332.498   2.179 135.800
  4196.0  -9.025  69.478  45.987   0.298 337.534   2.183 136.785
  4197.0 -11.264  70.022  46.635   0.308 340.391   2.189 137.796
  4198.0 -14.036  70.555  45.759   0.303 343.432   2.188 138.948
  4199.0 -16.656  69.125  44.978   0.273 346.600   2.176 140.100
  4200.0 -15.917  67.346  43.205   0.231 333.697   2.161 137.268
  4201.0 -12.013  65.101  41.826   0.178 316.961   2.152 132.918
  4202.0  -7.681  63.629  40.308   0.173 306.753   2.150 129.861
  4203.0  -4.029  63.859  40.564   0.191 328.278   2.157 133.926
  4204.0  -4.219  66.090  42.977   0.228 341.350   2.181 136.673
  4205.0  -6.674  67.946  43.814   0.292 324.814   2.205 133.663
  4206.0 -18.866  68.306  44.414   0.362 306.937   2.211 131.876
  4207.0 -19.525  66.602  44.140   0.398 314.852   2.194 133.796
  4208.0 -21.805  63.813  44.225   0.359 313.773   2.179 133.965
  4209.0 -22.391  59.787  43.124   0.272 306.157   2.172 132.319
  4210.0 -20.412  57.139  41.566   0.234 308.449   2.169 132.488
  4211.0 -19.753  54.522  41.655   0.208 318.369   2.160 134.611
  4212.0 -19.299  53.827  42.543   0.184 326.844   2.151 136.390
  4213.0 -16.108  53.701  43.040   0.175 335.731   2.149 137.695
  4214.0 -11.796  53.162  43.492   0.192 336.047   2.153 136.961
  4215.0  -9.962  51.858  45.049   0.223 331.722   2.162 135.716
  4216.0 -12.848  49.683  46.482   0.238 328.877   2.154 135.633
