~Version Information
 VERS.                         2.0 : CWLS log ASCII Standard -VERSION 2.0
 WRAP.                          NO : One line per depth step
~Well Information Block
#MNEM.UNIT            Data Type                      Information
#---------    --------------------   ----------------------------
 STRT.FT                         1 : 
 STOP.FT                     10900 : 
 STEP.FT                         1 : 
 NULL.                     -999.25 : 
 COMP.         TRANSCO EXPLORATION : COMPANY
 WELL.           OCS G-3546 NO.B-6 : WELL
 FLD .                   VERMILION : FIELD
 AREA.                   VERMILION : OFFSHORE AREA
 BLK .                          58 : OFFSHORE BLOCK
 CNTY.                             : COUNTY
 STAT.                             : STATE
 NATI.                      U.S.A. : NATION
 DATE.                 25-DEC-1981 : DATE OF FIRST LOG RUN
 API .                177054050600 : API
 UWI .                        1107 : UNIQUE WELL NUM
 LATI.               29 20' 20.04" : LATITUDE
 LONG.              -92 29'  1.32" : LONGITUDE
 CORD.    Lambert, South Louisiana Zone : MAP PROJECTION
 XLOC.FT              1633470.0000 : X LOCATION
 YLOC.FT               246314.0000 : Y LOCATION
 UNIT.                        FEET : UNIT OF DATA
~Curve Information Block
#MNEM.UNIT             API CODE                Curve Description
#---------    --------------------   ----------------------------
 DEPT.FT                           :  1 Depth
 SP  .MV                           :  2 Spontaneous Potential
 GR  .GAPI                         :  3 Gamma Ray
 NPHI.PU                           :  4 Neutron Porosity Sandstone
 RES .OHMM                         :  5 Resistivity
 DTS .US/F                         :  6 Shear Sonic, Extended to Datum
 RHOB.G/CC                         :  7 Density,Extended to Datum
 DT  .US/F                         :  8 Sonic,Extended to Datum
~Parameter Information Block
#MNEM.UNIT                Value                      Description
#---------    --------------------   ----------------------------
 EDF .FT                 -999.2500 : DRILLING FLOOR
 EGL .FT                       0.0 : GROUND LEVEL
 EKB .FT                   96.0000 : KELLY BUSHING
 ERF .                   Sea Level : ELEV REFERENCE
 LMF .                          KB : LOG MEASURED FROM
 RUN .                           1 : ========================LOGGING RUN
 DATE.                 25-DEC-1981 : DATE OF LOG RUN
 TLI .FT                       800 : TOP OF LOG RUN
 BLI .FT                      3500 : BOTTOM OF LOG RUN
 DFD .LBSG                  9.5000 : MUD DENSITY
 RMS .OHMS                  0.4199 : MUD RESISTIVITY
 MST .DEGF                 63.0000 : MUD TEMPERATURE
 RMFS.OHMS                  0.3499 : MUD FILTRATE RESISITIVITY
 MFST.DEGF                 63.0000 : MUD FILTRATE TEMPERATURE
 BHT .DEGF                109.0000 : BOTTOM HOLE TEMPERATURE
 RUN .                           2 : ========================LOGGING RUN
 DATE.                 12-JAN-1982 : DATE OF LOG RUN
 TLI .FT                      3500 : TOP OF LOG RUN
 BLI .FT                     10000 : BOTTOM OF LOG RUN
 DFD .LBSG                 13.5000 : MUD DENSITY
 RMS .OHMS                  0.6299 : MUD RESISTIVITY
 MST .DEGF                 50.0000 : MUD TEMPERATURE
 RMFS.OHMS                  0.3799 : MUD FILTRATE RESISITIVITY
 MFST.DEGF                 50.0000 : MUD FILTRATE TEMPERATURE
 BHT .DEGF                240.0000 : BOTTOM HOLE TEMPERATURE
 RUN .                           3 : ========================LOGGING RUN
 DATE.                  3-JAN-1982 : DATE OF LOG RUN
 TLI .FT                     10000 : TOP OF LOG RUN
 BLI .FT                     10900 : BOTTOM OF LOG RUN
 DFD .LBSG                 17.2000 : MUD DENSITY
 RMS .OHMS                  0.7500 : MUD RESISTIVITY
 MST .DEGF                 66.0000 : MUD TEMPERATURE
 RMFS.OHMS                  0.3700 : MUD FILTRATE RESISITIVITY
 MFST.DEGF                 66.0000 : MUD FILTRATE TEMPERATURE
 BHT .DEGF                240.0000 : BOTTOM HOLE TEMPERATURE
~ASCII        SP      GR    NPHI     RES     DTS    RHOB      DT
# ...
 10789.0  34.527  79.463 -999.25   0.421 308.790   2.201 126.506
 10790.0  27.901  82.444 -999.25   0.412 300.601   2.209 124.698
 10791.0  22.844  78.015 -999.25   0.433 293.492   2.217 123.091
 10792.0  21.837  74.283 -999.25   0.455 281.976   2.219 120.812
 10793.0  23.899  72.097 -999.25   0.454 279.377   2.210 120.682
 10794.0  25.802  69.594 -999.25   0.452 279.253   2.199 121.095
 10795.0  20.413  67.325 -999.25   0.449 269.434   2.201 119.067
 10796.0  17.248  64.502 -999.25   0.450 258.600   2.202 116.783
 10797.0  19.478  64.115 -999.25   0.452 257.786   2.201 116.623
 10798.0  21.383  66.452 -999.25   0.441 263.264   2.206 117.607
 10799.0  19.607  67.314 -999.25   0.428 264.201   2.209 117.675
 10800.0  18.724  70.640 -999.25   0.422 260.420   2.230 116.100
 10801.0  22.397  73.321 -999.25   0.424 257.957   2.250 114.840
 10802.0  28.058  72.680 -999.25   0.429 255.427   2.250 114.307
 10803.0  25.680  72.741 -999.25   0.440 253.682   2.254 113.811
 10804.0  24.418  70.389 -999.25   0.472 239.775   2.260 110.589
 10805.0  26.827  70.357 -999.25   0.531 235.796   2.266 109.476
 10806.0  31.463  73.971 -999.25   0.568 239.045   2.285 109.543
 10807.0  32.986  75.206 -999.25   0.597 240.104   2.285 109.789
 10808.0  31.770  74.154 -999.25   0.614 243.831   2.279 110.795
 10809.0  30.939  73.851 -999.25   0.615 256.433   2.262 114.105
 10810.0  28.822  72.970 -999.25   0.588 259.237   2.254 114.984
 10811.0  21.444  73.174 -999.25   0.523 252.766   2.265 113.236
 10812.0  15.354  71.388 -999.25   0.472 247.843   2.260 112.331
 10813.0  14.140  68.310 -999.25   0.453 242.503   2.251 111.517
 10814.0  17.126  70.502 -999.25   0.448 242.603   2.264 111.076
 10815.0  17.625  68.468 -999.25   0.461 240.011   2.256 110.768
 10816.0  14.394  66.828 -999.25   0.495 225.738   2.270 107.014
 10817.0  11.587  68.035 -999.25   0.538 215.035   2.295 103.646
 10818.0   8.664  67.901 -999.25   0.582 211.039   2.302 102.445
 10819.0   6.501  65.839 -999.25   0.596 207.444   2.299 101.664
 10820.0   7.698  64.857 -999.25   0.609 205.056   2.298 101.067
 10821.0  10.277  68.868 -999.25   0.619 205.986   2.319 100.673
 10822.0  11.116  75.954 -999.25   0.624 207.051   2.341 100.279
 10823.0  10.448  75.520 -999.25   0.627 208.498   2.338 100.719
 10824.0   5.659  73.667 -999.25   0.624 215.998   2.324 102.962
 10825.0   7.201  69.540 -999.25   0.609 220.713   2.301 104.835
 10826.0   9.308  67.138 -999.25   0.577 222.849   2.283 105.932
 10827.0  11.934  64.873 -999.25   0.536 223.479   2.270 106.494
 10828.0  12.434  67.430 -999.25   0.505 235.640   2.265 109.480
 10829.0  12.476  69.245 -999.25   0.483 228.700   2.289 107.088
 10830.0  11.295  70.958 -999.25   0.470 227.010   2.305 106.173
 10831.0  11.830  69.885 -999.25   0.467 228.649   2.295 106.862
 10832.0  14.568  64.144 -999.25   0.473 224.588   2.267 106.853
 10833.0  19.255  62.839 -999.25   0.487 222.733   2.264 106.530
 10834.0  25.084  65.906 -999.25   0.513 229.256   2.270 107.836
 10835.0  28.935  67.842 -999.25   0.541 226.693   2.287 106.678
 10836.0  29.684  74.083 -999.25   0.566 232.574   2.297 107.717
 10837.0  27.414  78.912 -999.25   0.589 233.073   2.296 107.856
 10838.0  25.487  76.543 -999.25   0.612 225.747   2.308 105.792
 10839.0  24.110  77.588 -999.25   0.640 218.348   2.320 103.653
 10840.0  23.878  77.007 -999.25   0.658 215.662   2.325 102.863
 10841.0  22.148  73.726 -999.25   0.667 229.571   2.301 106.876
 10842.0  15.736  73.610 -999.25   0.667 245.489   2.277 111.239
 10843.0  13.121  75.621 -999.25   0.658 241.293   2.283 110.111
 10844.0  13.753  77.252 -999.25   0.641 228.984   2.302 106.710
 10845.0  14.359  70.121 -999.25   0.615 237.413   2.289 109.054
 10846.0   2.843  67.308 -999.25   0.579 246.726   2.263 112.010
 10847.0  -4.669  67.518 -999.25   0.526 239.407   2.276 109.946
 10848.0  -7.250  65.801 -999.25   0.451 230.489   2.277 107.882
 10849.0  -7.945  59.069 -999.25   0.405 222.089   2.252 106.760
 10850.0  -6.484  58.358 -999.25   0.374 219.329   2.254 106.046
 10851.0  -6.221  57.650 -999.25   0.326 216.615   2.255 105.332
 10852.0  -7.227  56.644 -999.25   0.329 213.782   2.255 104.621
 10853.0   1.345  61.044 -999.25   0.350 216.140   2.276 104.536
 10854.0   9.675  67.103 -999.25   0.403 220.349   2.310 104.450
 10855.0  12.793  73.685 -999.25   0.471 220.901   2.316 104.398
 10856.0   9.017  74.449 -999.25   0.527 223.029   2.312 105.013
 10857.0   4.089  73.717 -999.25   0.536 225.528   2.308 105.729
 10858.0   2.604  75.220 -999.25   0.520 225.651   2.308 105.765
 10859.0  11.769  76.014 -999.25   0.505 225.775   2.307 105.800
 10860.0  17.327  75.003 -999.25   0.495 225.899   2.307 105.835
 10861.0  19.817  70.065 -999.25   0.492 225.767   2.308 105.798
 10862.0  20.317  65.319 -999.25   0.493 223.930   2.298 105.693
 10863.0  22.611  67.985 -999.25   0.496 225.037   2.309 105.589
 10864.0  22.577  69.338 -999.25   0.500 224.672   2.309 105.485
 10865.0  21.596  69.370 -999.25   0.503 224.308   2.310 105.380
 10866.0  21.667  67.160 -999.25   0.503 224.057   2.310 105.308
 10867.0  21.133  63.650 -999.25   0.499 221.371   2.293 105.238
 10868.0  18.774  65.611 -999.25   0.481 223.084   2.308 105.168
 10869.0  18.239  66.754 -999.25   0.438 223.386   2.311 105.115
 10870.0  19.100  66.798 -999.25   0.408 223.566   2.311 105.167
 10871.0  20.679  65.263 -999.25   0.389 223.292   2.308 105.219
 10872.0  20.207  61.272 -999.25   0.368 220.121   2.283 105.271
 10873.0  18.628  60.165 -999.25   0.367 219.587   2.277 105.323
 10874.0  20.625  63.144 -999.25   0.445 222.150   2.295 105.375
 10875.0  24.938  65.634 -999.25   0.485 224.447   2.310 105.420
 10876.0  28.525  65.613 -999.25   0.521 224.580   2.309 105.458
 10877.0  22.474  64.606 -999.25   0.507 224.364   2.307 105.497
 10878.0  16.468  63.356 -999.25   0.506 223.384   2.299 105.535
 10879.0  11.587  62.959 -999.25   0.509 223.491   2.296 105.645
 10880.0  11.205  63.566 -999.25   0.512 221.989   2.305 105.000
 10881.0  12.265  64.328 -999.25   0.509 222.872   2.311 105.000
 10882.0  11.651  65.169 -999.25   0.508 222.985   2.312 105.000
 10883.0  10.766  64.870 -999.25   0.504 222.985   2.312 105.000
 10884.0   8.267  62.731 -999.25   0.500 221.285   2.300 105.000
 10885.0   6.134  62.891 -999.25   0.493 221.443   2.301 105.000
 10886.0   4.842  64.411 -999.25   0.488 222.955   2.312 105.000
 10887.0   2.899  63.378 -999.25   0.487 221.926   2.304 105.000
 10888.0   0.417  66.930 -999.25   0.490 222.985   2.312 105.000
 10889.0  -0.868  70.127 -999.25   0.491 222.985   2.312 105.000
 10890.0  -0.287  68.123 -999.25   0.491 222.985   2.312 105.000
 10891.0   1.888  67.072 -999.25   0.491 222.985   2.312 105.000
 10892.0   4.708  66.350 -999.25   0.490 222.985   2.312 105.000
 10893.0   6.623  63.922 -999.25   0.493 222.468   2.308 105.000
 10894.0   2.883  61.823 -999.25   0.494 220.387   2.293 105.000
 10895.0  -1.959  61.001 -999.25   0.499 219.733   2.288 105.000
 10896.0  -6.278  61.083 -999.25   0.503 219.794   2.289 105.000
 10897.0 -10.516  61.431 -999.25   0.507 220.051   2.291 105.000
 10898.0 -13.473  61.723 -999.25   0.508 220.288   2.292 105.000
 10899.0 -13.256  61.766 -999.25   0.505 -999.25 -999.25 -999.25
 10900.0  -9.534  61.773 -999.25   0.503 -999.25 -999.25 -999.25
