~Version Information
 VERS.                         2.0 : CWLS log ASCII Standard -VERSION 2.0
 WRAP.                          NO : One line per depth step
~Well Information Block
#MNEM.UNIT            Data Type                      Information
#---------    --------------------   ----------------------------
 STRT.FT                         1 : 
 STOP.FT                     10900 : 
 STEP.FT                         1 : 
 NULL.                     -999.25 : 
 COMP.         TRANSCO EXPLORATION : COMPANY
 WELL.           OCS G-3546 NO.B-6 : WELL
 FLD .                   VERMILION : FIELD
 AREA.                   VERMILION : OFFSHORE AREA
 BLK .                          58 : OFFSHORE BLOCK
 CNTY.                             : COUNTY
 STAT.                             : STATE
 NATI.                      U.S.A. : NATION
 DATE.                 25-DEC-1981 : DATE OF FIRST LOG RUN
 API .                177054050600 : API
 UWI .                        1107 : UNIQUE WELL NUM
 LATI.               29 20' 20.04" : LATITUDE
 LONG.              -92 29'  1.32" : LONGITUDE
 CORD.    Lambert, South Louisiana Zone : MAP PROJECTION
 XLOC.FT              1633470.0000 : X LOCATION
 YLOC.FT               246314.0000 : Y LOCATION
 UNIT.                        FEET : UNIT OF DATA
~Curve Information Block
#MNEM.UNIT             API CODE                Curve Description
#---------    --------------------   ----------------------------
 DEPT.FT                           :  1 Depth
 SP  .MV                           :  2 Spontaneous Potential
 GR  .GAPI                         :  3 Gamma Ray
 NPHI.PU                           :  4 Neutron Porosity Sandstone
 RES .OHMM                         :  5 Resistivity
 DTS .US/F                         :  6 Shear Sonic, Extended to Datum
 RHOB.G/CC                         :  7 Density,Extended to Datum
 DT  .US/F                         :  8 Sonic,Extended to Datum
~Parameter Information Block
#MNEM.UNIT                Value                      Description
#---------    --------------------   ----------------------------
 EDF .FT                 -999.2500 : DRILLING FLOOR
 EGL .FT                       0.0 : GROUND LEVEL
 EKB .FT                   96.0000 : KELLY BUSHING
 ERF .                   Sea Level : ELEV REFERENCE
 LMF .                          KB : LOG MEASURED FROM
 RUN .                           1 : ========================LOGGING RUN
 DATE.                 25-DEC-1981 : DATE OF LOG RUN
 TLI .FT                       800 : TOP OF LOG RUN
 BLI .FT                      3500 : BOTTOM OF LOG RUN
 DFD .LBSG                  9.5000 : MUD DENSITY
 RMS .OHMS                  0.4199 : MUD RESISTIVITY
 MST .DEGF                 63.0000 : MUD TEMPERATURE
 RMFS.OHMS                  0.3499 : MUD FILTRATE RESISITIVITY
 MFST.DEGF                 63.0000 : MUD FILTRATE TEMPERATURE
 BHT .DEGF                109.0000 : BOTTOM HOLE TEMPERATURE
 RUN .                           2 : ========================LOGGING RUN
 DATE.                 12-JAN-1982 : DATE OF LOG RUN
 TLI .FT                      3500 : TOP OF LOG RUN
 BLI .FT                     10000 : BOTTOM OF LOG RUN
 DFD .LBSG                 13.5000 : MUD DENSITY
 RMS .OHMS                  0.6299 : MUD RESISTIVITY
 MST .DEGF                 50.0000 : MUD TEMPERATURE
 RMFS.OHMS                  0.3799 : MUD FILTRATE RESISITIVITY
 MFST.DEGF                 50.0000 : MUD FILTRATE TEMPERATURE
 BHT .DEGF                240.0000 : BOTTOM HOLE TEMPERATURE
 RUN .                           3 : ========================LOGGING RUN
 DATE.                  3-JAN-1982 : DATE OF LOG RUN
 TLI .FT                     10000 : TOP OF LOG RUN
 BLI .FT                     10900 : BOTTOM OF LOG RUN
 DFD .LBSG                 17.2000 : MUD DENSITY
 RMS .OHMS                  0.7500 : MUD RESISTIVITY
 MST .DEGF                 66.0000 : MUD TEMPERATURE
 RMFS.OHMS                  0.3700 : MUD FILTRATE RESISITIVITY
 MFST.DEGF                 66.0000 : MUD FILTRATE TEMPERATURE
 BHT .DEGF                240.0000 : BOTTOM HOLE TEMPERATURE
~ASCII        SP      GR    NPHI     RES     DTS    RHOB      DT
# ...
 10169.0  37.157  48.781 -999.25   0.648 341.230   2.060 138.454
 10170.0  38.169  50.989 -999.25   0.726 357.572   2.054 141.421
 10171.0  39.585  47.855 -999.25   0.808 380.008   2.029 146.186
 10172.0  41.585  45.651 -999.25   0.778 390.195   2.016 148.384
 10173.0  43.961  47.032 -999.25   0.676 395.311   2.017 149.094
 10174.0  48.555  47.264 -999.25   0.560 395.409   2.017 149.076
 10175.0  49.507  44.661 -999.25   0.543 392.738   2.012 148.993
 10176.0  47.668  42.622 -999.25   0.548 389.947   2.008 148.799
 10177.0  47.268  41.878 -999.25   0.579 388.434   2.007 148.636
 10178.0  49.408  41.421 -999.25   0.649 388.319   2.006 148.685
 10179.0  48.956  40.896 -999.25   0.656 388.147   2.004 148.734
 10180.0  43.624  41.730 -999.25   0.633 389.112   2.006 148.782
 10181.0  39.821  46.031 -999.25   0.595 392.998   2.015 148.831
 10182.0  35.606  48.008 -999.25   0.567 394.947   2.020 148.880
 10183.0  34.233  49.618 -999.25   0.580 396.865   2.023 148.967
 10184.0  36.062  53.515 -999.25   0.599 401.958   2.031 149.220
 10185.0  37.630  56.891 -999.25   0.610 378.182   2.058 144.372
 10186.0  34.162  56.150 -999.25   0.615 383.409   2.052 145.456
 10187.0  28.210  53.595 -999.25   0.611 393.057   2.037 147.639
 10188.0  27.528  49.438 -999.25   0.586 396.303   2.023 148.895
 10189.0  32.133  44.173 -999.25   0.536 397.600   2.007 149.936
 10190.0  37.358  44.198 -999.25   0.476 398.737   2.007 150.135
 10191.0  35.307  52.797 -999.25   0.468 406.111   2.027 150.065
 10192.0  31.984  57.986 -999.25   0.490 411.107   2.040 149.995
 10193.0  27.832  59.756 -999.25   0.511 412.474   2.045 149.925
 10194.0  25.780  63.248 -999.25   0.562 414.020   2.056 149.549
 10195.0  25.262  61.237 -999.25   0.602 409.471   2.052 149.162
 10196.0  22.484  67.922 -999.25   0.605 415.247   2.073 148.774
 10197.0  21.560  76.713 -999.25   0.592 424.970   2.109 148.154
 10198.0  22.067  77.459 -999.25   0.582 420.113   2.114 147.278
 10199.0  21.527  74.106 -999.25   0.580 338.581   2.156 133.482
 10200.0  19.562  70.540 -999.25   0.580 334.980   2.142 133.517
 10201.0  15.142  70.797 -999.25   0.575 332.088   2.146 132.873
 10202.0  10.922  75.296 -999.25   0.568 334.261   2.167 132.302
 10203.0   9.746  76.203 -999.25   0.573 334.180   2.172 132.053
 10204.0   7.569  76.387 -999.25   0.583 335.509   2.172 132.273
 10205.0  12.894  80.206 -999.25   0.588 330.967   2.180 131.185
 10206.0  11.629  79.921 -999.25   0.583 332.609   2.178 131.519
 10207.0  14.845  78.227 -999.25   0.577 337.890   2.174 132.584
 10208.0  17.348  80.446 -999.25   0.573 332.544   2.178 131.506
 10209.0  22.436  78.961 -999.25   0.572 333.122   2.178 131.623
 10210.0  24.717  73.518 -999.25   0.562 330.216   2.160 131.921
 10211.0  24.544  72.129 -999.25   0.554 330.451   2.153 132.271
 10212.0  27.849  72.787 -999.25   0.556 327.338   2.159 131.499
 10213.0  34.886  73.665 -999.25   0.552 323.797   2.167 130.545
 10214.0  40.903  73.957 -999.25   0.547 322.230   2.170 130.141
 10215.0  44.682  75.078 -999.25   0.550 327.263   2.172 130.909
 10216.0  46.250  75.800 -999.25   0.555 329.968   2.174 131.283
 10217.0  46.900  75.936 -999.25   0.549 329.506   2.175 131.152
 10218.0  47.430  73.111 -999.25   0.541 330.637   2.158 132.104
 10219.0  48.331  70.539 -999.25   0.533 330.488   2.147 132.580
 10220.0  50.989  71.359 -999.25   0.529 330.135   2.150 132.348
 10221.0  52.644  75.561 -999.25   0.531 331.508   2.171 131.653
 10222.0  51.128  79.010 -999.25   0.534 327.785   2.183 130.532
 10223.0  48.798  79.696 -999.25   0.541 323.195   2.187 129.580
 10224.0  46.344  77.000 -999.25   0.551 319.718   2.190 128.850
 10225.0  43.693  81.961 -999.25   0.556 317.830   2.192 128.451
 10226.0  39.345  82.900 -999.25   0.556 319.304   2.190 128.763
 10227.0  40.839  78.580 -999.25   0.556 316.959   2.193 128.265
 10228.0  43.282  77.393 -999.25   0.556 313.836   2.196 127.598
 10229.0  41.628  77.632 -999.25   0.552 323.826   2.186 129.712
 10230.0  39.804  77.202 -999.25   0.558 330.248   2.180 131.038
 10231.0  36.469  75.287 -999.25   0.560 318.020   2.182 128.899
 10232.0  32.968  73.976 -999.25   0.553 322.940   2.170 130.268
 10233.0  35.441  76.553 -999.25   0.547 326.346   2.182 130.328
 10234.0  38.997  77.480 -999.25   0.542 322.517   2.187 129.438
 10235.0  40.147  77.983 -999.25   0.539 318.290   2.191 128.548
 10236.0  39.723  79.551 -999.25   0.539 322.730   2.187 129.483
 10237.0  39.318  79.309 -999.25   0.540 328.668   2.182 130.714
 10238.0  39.031  78.248 -999.25   0.542 333.455   2.177 131.691
 10239.0  37.228  76.639 -999.25   0.540 337.671   2.172 132.605
 10240.0  35.133  75.819 -999.25   0.533 341.742   2.164 133.626
 10241.0  34.507  76.641 -999.25   0.521 349.610   2.162 134.952
 10242.0  33.881  77.399 -999.25   0.508 356.866   2.158 136.278
 10243.0  34.468  75.456 -999.25   0.506 363.754   2.144 137.949
 10244.0  38.267  73.447 -999.25   0.499 365.505   2.132 138.815
 10245.0  38.706  73.176 -999.25   0.490 365.772   2.130 138.938
 10246.0  36.908  74.241 -999.25   0.480 367.998   2.134 139.060
 10247.0  39.386  74.636 -999.25   0.471 353.774   2.148 136.274
 10248.0  41.883  72.096 -999.25   0.468 327.053   2.157 131.543
 10249.0  41.645  69.163 -999.25   0.487 285.795   2.185 122.907
 10250.0  40.409  67.667 -999.25   0.550 244.663   2.230 112.711
 10251.0  41.073  67.922 -999.25   0.623 223.644   2.264 106.746
 10252.0  38.615  69.035 -999.25   0.701 226.986   2.263 107.543
 10253.0  38.883  68.260 -999.25   0.786 240.641   2.239 111.512
 10254.0  38.849  68.297 -999.25   0.755 257.486   2.216 116.015
 10255.0  37.653  71.287 -999.25   0.664 285.963   2.195 122.562
 10256.0  34.211  73.161 -999.25   0.585 313.876   2.175 128.508
 10257.0  30.392  70.977 -999.25   0.534 315.783   2.163 129.356
 10258.0  25.209  68.861 -999.25   0.497 308.713   2.160 128.209
 10259.0  21.900  70.419 -999.25   0.489 303.597   2.172 126.777
 10260.0  22.510  72.982 -999.25   0.506 293.462   2.194 123.989
 10261.0  26.066  70.520 -999.25   0.541 279.510   2.199 121.150
 10262.0  22.402  69.326 -999.25   0.581 266.029   2.210 118.025
 10263.0  26.363  70.373 -999.25   0.624 268.916   2.211 118.570
 10264.0  35.621  72.390 -999.25   0.624 314.496   2.170 128.805
 10265.0  43.180  75.094 -999.25   0.546 340.760   2.162 133.583
 10266.0  43.550  74.279 -999.25   0.488 333.842   2.163 132.400
 10267.0  40.306  71.960 -999.25   0.455 313.128   2.170 128.586
 10268.0  36.246  70.230 -999.25   0.453 287.289   2.189 123.053
 10269.0  31.997  67.851 -999.25   0.489 258.430   2.213 116.324
 10270.0  31.707  67.665 -999.25   0.548 242.491   2.234 112.104
 10271.0  31.616  68.621 -999.25   0.624 234.712   2.250 109.792
 10272.0  29.970  66.907 -999.25   0.684 225.674   2.256 107.480
 10273.0  28.064  63.721 -999.25   0.700 222.930   2.247 107.149
 10274.0  26.746  59.078 -999.25   0.692 218.511   2.237 106.415
 10275.0  18.952  59.195 -999.25   0.669 209.613   2.252 103.680
 10276.0  11.804  62.783 -999.25   0.645 208.026   2.269 102.757
 10277.0  15.777  65.061 -999.25   0.628 222.518   2.253 106.840
 10278.0  16.402  65.346 -999.25   0.615 231.950   2.239 109.527
 10279.0  11.342  64.044 -999.25   0.593 231.657   2.234 109.636
 10280.0   6.133  65.343 -999.25   0.568 232.837   2.238 109.778
 10281.0   8.966  67.577 -999.25   0.551 246.276   2.228 113.140
 10282.0  13.870  67.723 -999.25   0.540 267.507   2.201 118.659
 10283.0  16.838  66.757 -999.25   0.523 267.932   2.196 118.933
 10284.0  16.951  64.746 -999.25   0.501 262.078   2.195 117.789
 10285.0  23.422  65.516 -999.25   0.489 276.167   2.181 121.202
 10286.0  25.758  68.010 -999.25   0.489 282.867   2.184 122.384
 10287.0  27.503  68.427 -999.25   0.489 263.970   2.209 117.637
 10288.0  29.178  62.330 -999.25   0.481 234.125   2.224 110.563
 10289.0  29.854  64.204 -999.25   0.478 252.893   2.204 115.462
 10290.0  30.931  68.024 -999.25   0.489 277.299   2.191 121.030
 10291.0  32.184  69.797 -999.25   0.487 280.452   2.195 121.480
 10292.0  32.675  68.992 -999.25   0.473 289.452   2.182 123.765
