~Version Information
 VERS.                         2.0 : CWLS log ASCII Standard -VERSION 2.0
 WRAP.                          NO : One line per depth step
~Well Information Block
#MNEM.UNIT            Data Type                      Information
#---------    --------------------   ----------------------------
 STRT.FT                         1 : 
 STOP.FT                     10900 : 
 STEP.FT                         1 : 
 NULL.                     -999.25 : 
 COMP.         TRANSCO EXPLORATION : COMPANY
 WELL.           OCS G-3546 NO.B-6 : WELL
 FLD .                   VERMILION : FIELD
 AREA.                   VERMILION : OFFSHORE AREA
 BLK .                          58 : OFFSHORE BLOCK
 CNTY.                             : COUNTY
 STAT.                             : STATE
 NATI.                      U.S.A. : NATION
 DATE.                 25-DEC-1981 : DATE OF FIRST LOG RUN
 API .                177054050600 : API
 UWI .                        1107 : UNIQUE WELL NUM
 LATI.               29 20' 20.04" : LATITUDE
 LONG.              -92 29'  1.32" : LONGITUDE
 CORD.    Lambert, South Louisiana Zone : MAP PROJECTION
 XLOC.FT              1633470.0000 : X LOCATION
 YLOC.FT               246314.0000 : Y LOCATION
 UNIT.                        FEET : UNIT OF DATA
~Curve Information Block
#MNEM.UNIT             API CODE                Curve Description
#---------    --------------------   ----------------------------
 DEPT.FT                           :  1 Depth
 SP  .MV                           :  2 Spontaneous Potential
 GR  .GAPI                         :  3 Gamma Ray
 NPHI.PU                           :  4 Neutron Porosity Sandstone
 RES .OHMM                         :  5 Resistivity
 DTS .US/F                         :  6 Shear Sonic, Extended to Datum
 RHOB.G/CC                         :  7 Density,Extended to Datum
 DT  .US/F                         :  8 Sonic,Extended to Datum
~Parameter Information Block
#MNEM.UNIT                Value                      Description
#---------    --------------------   ----------------------------
 EDF .FT                 -999.2500 : DRILLING FLOOR
 EGL .FT                       0.0 : GROUND LEVEL
 EKB .FT                   96.0000 : KELLY BUSHING
 ERF .                   Sea Level : ELEV REFERENCE
 LMF .                          KB : LOG MEASURED FROM
 RUN .                           1 : ========================LOGGING RUN
 DATE.                 25-DEC-1981 : DATE OF LOG RUN
 TLI .FT                       800 : TOP OF LOG RUN
 BLI .FT                      3500 : BOTTOM OF LOG RUN
 DFD .LBSG                  9.5000 : MUD DENSITY
 RMS .OHMS                  0.4199 : MUD RESISTIVITY
 MST .DEGF                 63.0000 : MUD TEMPERATURE
 RMFS.OHMS                  0.3499 : MUD FILTRATE RESISITIVITY
 MFST.DEGF                 63.0000 : MUD FILTRATE TEMPERATURE
 BHT .DEGF                109.0000 : BOTTOM HOLE TEMPERATURE
 RUN .                           2 : ========================LOGGING RUN
 DATE.                 12-JAN-1982 : DATE OF LOG RUN
 TLI .FT                      3500 : TOP OF LOG RUN
 BLI .FT                     10000 : BOTTOM OF LOG RUN
 DFD .LBSG                 13.5000 : MUD DENSITY
 RMS .OHMS                  0.6299 : MUD RESISTIVITY
 MST .DEGF                 50.0000 : MUD TEMPERATURE
 RMFS.OHMS                  0.3799 : MUD FILTRATE RESISITIVITY
 MFST.DEGF                 50.0000 : MUD FILTRATE TEMPERATURE
 BHT .DEGF                240.0000 : BOTTOM HOLE TEMPERATURE
 RUN .                           3 : ========================LOGGING RUN
 DATE.                  3-JAN-1982 : DATE OF LOG RUN
 TLI .FT                     10000 : TOP OF LOG RUN
 BLI .FT                     10900 : BOTTOM OF LOG RUN
 DFD .LBSG                 17.2000 : MUD DENSITY
 RMS .OHMS                  0.7500 : MUD RESISTIVITY
 MST .DEGF                 66.0000 : MUD TEMPERATURE
 RMFS.OHMS                  0.3700 : MUD FILTRATE RESISITIVITY
 MFST.DEGF                 66.0000 : MUD FILTRATE TEMPERATURE
 BHT .DEGF                240.0000 : BOTTOM HOLE TEMPERATURE
~ASCII        SP      GR    NPHI     RES     DTS    RHOB      DT
# ...
  2109.0 -10.397  60.042 -999.25   0.451 451.736   2.024 156.160
  2110.0 -10.028  63.229 -999.25   0.406 453.728   2.034 155.803
  2111.0 -10.213  66.046 -999.25   0.420 428.592   2.059 151.275
  2112.0  -9.941  67.338 -999.25   0.454 424.772   2.067 150.351
  2113.0  -9.437  66.519 -999.25   0.494 419.127   2.067 149.635
  2114.0  -9.133  66.594 -999.25   0.513 414.320   2.070 148.828
  2115.0  -9.752  67.344 -999.25   0.503 411.821   2.075 148.236
  2116.0  -8.119  70.022 -999.25   0.478 430.762   2.075 150.659
  2117.0  -6.429  72.421 -999.25   0.473 443.673   2.079 152.059
  2118.0  -5.949  74.425 -999.25   0.481 446.551   2.089 151.852
  2119.0  -4.752  73.773 -999.25   0.500 449.572   2.084 152.513
  2120.0  -3.060  68.699 -999.25   0.534 465.668   2.051 156.245
  2121.0  -3.393  69.375 -999.25   0.581 424.804   2.076 149.870
  2122.0  -3.986  75.330 -999.25   0.631 387.703   2.131 142.072
  2123.0  -5.340  80.826 -999.25   0.686 412.915   2.118 146.118
  2124.0  -5.727  86.084 -999.25   0.743 473.724   2.084 155.283
  2125.0  -5.383  83.221 -999.25   0.801 536.911   2.056 163.476
  2126.0  -5.461  78.988 -999.25   0.856 496.209   2.074 158.338
  2127.0  -5.507  81.141 -999.25   0.901 423.550   2.112 147.825
  2128.0  -5.502  83.546 -999.25   0.908 419.031   2.115 147.105
  2129.0  -5.433  85.565 -999.25   0.895 427.187   2.110 148.398
  2130.0  -5.253  87.929 -999.25   0.861 492.559   2.075 157.853
  2131.0  -5.073  90.469 -999.25   0.787 524.932   2.061 162.013
  2132.0  -5.128  92.957 -999.25   0.745 519.742   2.063 161.367
  2133.0  -5.100  90.569 -999.25   0.731 490.503   2.076 157.578
  2134.0  -4.952  85.212 -999.25   0.757 451.038   2.096 152.026
  2135.0  -4.813  81.666 -999.25   0.801 406.965   2.122 145.143
  2136.0  -4.080  80.287 -999.25   0.864 405.563   2.123 144.911
  2137.0  -4.472  77.603 -999.25   0.956 428.626   2.109 148.623
  2138.0  -4.314  69.464 -999.25   0.987 439.781   2.068 152.201
  2139.0  -4.047  63.110 -999.25   0.955 434.490   2.044 152.853
  2140.0  -5.260  62.981 -999.25   0.792 425.748   2.049 151.485
  2141.0  -5.817  66.320 -999.25   0.704 405.996   2.074 147.498
  2142.0  -5.464  70.694 -999.25   0.661 392.082   2.102 144.115
  2143.0  -5.131  76.072 -999.25   0.649 452.967   2.095 152.314
  2144.0  -5.186  75.819 -999.25   0.687 455.079   2.092 152.704
  2145.0  -5.374  67.499 -999.25   0.771 535.260   2.015 165.829
  2146.0  -5.802  56.550 -999.25   0.810 450.488   2.013 156.603
  2147.0  -7.929  52.288 -999.25   0.802 379.395   2.041 145.448
  2148.0 -12.154  50.471 -999.25   0.700 389.876   2.028 147.665
  2149.0 -13.268  49.583 -999.25   0.536 408.763   2.014 151.139
  2150.0 -13.263  51.281 -999.25   0.424 413.861   2.016 151.712
  2151.0 -13.017  55.765 -999.25   0.375 422.301   2.026 152.284
  2152.0 -13.502  55.992 -999.25   0.341 423.670   2.026 152.464
  2153.0 -13.973  55.675 -999.25   0.311 427.533   2.023 153.153
  2154.0 -13.782  56.263 -999.25   0.289 453.993   2.011 157.184
  2155.0 -11.852  66.107 -999.25   0.307 525.448   2.013 164.972
  2156.0  -9.126  75.595 -999.25   0.367 607.216   2.028 171.516
  2157.0  -6.742  75.776 -999.25   0.505 526.003   2.059 162.269
  2158.0  -5.079  74.434 -999.25   0.679 463.614   2.080 154.397
  2159.0  -4.177  73.376 -999.25   0.805 450.006   2.081 152.742
  2160.0  -4.848  72.553 -999.25   0.941 447.819   2.077 152.676
  2161.0  -4.843  72.796 -999.25   0.962 453.759   2.075 153.484
  2162.0  -4.838  67.779 -999.25   0.909 544.073   2.013 166.827
  2163.0  -5.049  64.434 -999.25   0.815 461.242   2.035 156.647
  2164.0  -5.364  64.695 -999.25   0.764 413.135   2.062 149.066
  2165.0  -6.380  66.272 -999.25   0.722 378.149   2.092 142.625
  2166.0  -7.605  69.022 -999.25   0.632 452.585   2.059 154.252
  2167.0  -7.508  70.843 -999.25   0.598 418.829   2.086 148.579
  2168.0  -6.630  73.891 -999.25   0.596 421.102   2.100 148.130
  2169.0  -5.489  77.093 -999.25   0.637 466.536   2.088 154.270
  2170.0  -5.186  78.341 -999.25   0.708 456.676   2.093 152.852
  2171.0  -4.457  77.962 -999.25   0.762 447.291   2.098 151.470
  2172.0  -3.471  77.176 -999.25   0.798 474.594   2.084 155.404
  2173.0  -2.373  74.510 -999.25   0.824 452.131   2.086 152.716
  2174.0  -2.999  70.950 -999.25   0.839 419.852   2.086 148.722
  2175.0  -3.141  73.918 -999.25   0.841 380.434   2.126 141.257
  2176.0  -3.080  78.220 -999.25   0.835 364.898   2.152 137.782
  2177.0  -2.833  77.324 -999.25   0.806 432.616   2.106 149.243
  2178.0  -2.668  75.241 -999.25   0.793 501.358   2.066 159.338
  2179.0  -3.606  73.057 -999.25   0.801 443.774   2.082 151.924
  2180.0  -5.204  70.768 -999.25   0.756 387.601   2.105 143.327
  2181.0  -6.099  70.503 -999.25   0.679 378.026   2.111 141.678
  2182.0  -5.277  70.792 -999.25   0.638 375.818   2.114 141.216
  2183.0  -3.011  73.129 -999.25   0.631 393.230   2.113 143.737
  2184.0  -1.506  75.889 -999.25   0.665 440.740   2.100 150.600
  2185.0  -1.217  78.554 -999.25   0.755 440.322   2.102 150.423
  2186.0  -0.919  79.256 -999.25   0.857 417.575   2.115 146.872
  2187.0  -0.372  77.693 -999.25   0.983 435.915   2.105 149.751
  2188.0  -0.342  75.446 -999.25   0.987 439.768   2.098 150.592
  2189.0  -1.460  70.740 -999.25   0.930 423.501   2.082 149.363
  2190.0  -2.760  62.719 -999.25   0.803 405.092   2.060 148.090
  2191.0  -2.942  67.597 -999.25   0.712 407.438   2.079 147.444
  2192.0  -1.971  74.581 -999.25   0.687 519.727   2.054 161.927
  2193.0  -1.617  75.838 -999.25   0.709 619.207   2.024 172.710
  2194.0  -1.889  74.993 -999.25   0.717 571.778   2.036 167.963
  2195.0  -1.491  76.037 -999.25   0.721 487.562   2.076 157.269
  2196.0  -0.671  79.059 -999.25   0.725 450.095   2.097 151.887
  2197.0  -1.468  77.688 -999.25   0.741 510.031   2.067 160.137
  2198.0  -0.634  74.694 -999.25   0.781 497.080   2.064 158.975
  2199.0   0.883  73.684 -999.25   0.825 451.702   2.081 152.935
  2200.0   0.751  74.368 -999.25   0.886 437.204   2.093 150.540
  2201.0   0.513  75.607 -999.25   0.957 357.672   2.153 136.628
  2202.0  -0.471  77.689 -999.25   1.035 362.088   2.154 137.260
  2203.0  -1.006  79.674 -999.25   1.098 395.123   2.130 143.155
  2204.0  -1.223  77.380 -999.25   1.052 413.920   2.118 146.282
  2205.0  -1.883  73.948 -999.25   0.995 363.021   2.139 138.093
  2206.0  -1.695  70.752 -999.25   0.931 362.433   2.123 138.754
  2207.0  -0.563  67.575 -999.25   0.886 413.627   2.075 148.479
  2208.0   0.514  66.272 -999.25   0.857 470.613   2.038 157.550
  2209.0   0.762  67.746 -999.25   0.861 396.726   2.086 145.587
  2210.0  -0.169  69.432 -999.25   0.895 374.404   2.109 141.256
  2211.0  -0.945  73.381 -999.25   0.968 413.772   2.101 147.135
  2212.0  -1.265  75.595 -999.25   1.041 426.850   2.105 148.578
  2213.0  -2.070  72.126 -999.25   1.069 344.714   2.143 135.051
  2214.0  -3.585  67.959 -999.25   1.006 314.101   2.152 129.515
  2215.0  -4.292  65.684 -999.25   0.899 315.090   2.141 130.173
  2216.0  -4.219  66.942 -999.25   0.841 376.291   2.097 142.133
  2217.0  -4.369  68.036 -999.25   0.749 404.680   2.082 146.881
  2218.0  -3.945  68.768 -999.25   0.652 416.084   2.078 148.615
  2219.0  -4.514  68.476 -999.25   0.589 429.261   2.069 150.802
  2220.0  -4.687  68.025 -999.25   0.551 431.219   2.066 151.215
  2221.0  -4.053  70.912 -999.25   0.537 430.557   2.079 150.454
  2222.0  -2.423  74.383 -999.25   0.545 436.340   2.093 150.425
  2223.0  -2.244  76.383 -999.25   0.597 482.324   2.080 156.486
  2224.0  -2.602  78.274 -999.25   0.682 495.105   2.074 158.192
  2225.0  -3.058  80.006 -999.25   0.732 411.776   2.119 145.933
  2226.0  -3.111  80.563 -999.25   0.750 449.964   2.097 151.867
  2227.0  -2.494  76.190 -999.25   0.746 488.632   2.076 157.408
  2228.0  -2.600  72.233 -999.25   0.775 441.884   2.078 151.910
  2229.0  -2.954  69.129 -999.25   0.796 401.512   2.089 146.105
  2230.0  -2.971  68.180 -999.25   0.791 405.754   2.082 147.031
  2231.0  -2.982  69.704 -999.25   0.787 438.210   2.069 151.924
  2232.0  -1.884  71.986 -999.25   0.776 474.004   2.060 156.674
