~Version Information
 VERS.                         2.0 : CWLS log ASCII Standard -VERSION 2.0
 WRAP.                          NO : One line per depth step
~Well Information Block
#MNEM.UNIT            Data Type                      Information
#---------    --------------------   ----------------------------
 STRT.FT                         1 : 
 STOP.FT                     10900 : 
 STEP.FT                         1 : 
 NULL.                     -999.25 : 
 COMP.         TRANSCO EXPLORATION : COMPANY
 WELL.           OCS G-3546 NO.B-6 : WELL
 FLD .                   VERMILION : FIELD
 AREA.                   VERMILION : OFFSHORE AREA
 BLK .                          58 : OFFSHORE BLOCK
 CNTY.                             : COUNTY
 STAT.                             : STATE
 NATI.                      U.S.A. : NATION
 DATE.                 25-DEC-1981 : DATE OF FIRST LOG RUN
 API .                177054050600 : API
 UWI .                        1107 : UNIQUE WELL NUM
 LATI.               29 20' 20.04" : LATITUDE
 LONG.              -92 29'  1.32" : LONGITUDE
 CORD.    Lambert, South Louisiana Zone : MAP PROJECTION
 XLOC.FT              1633470.0000 : X LOCATION
 YLOC.FT               246314.0000 : Y LOCATION
 UNIT.                        FEET : UNIT OF DATA
~Curve Information Block
#MNEM.UNIT             API CODE                Curve Description
#---------    --------------------   ----------------------------
 DEPT.FT                           :  1 Depth
 SP  .MV                           :  2 Spontaneous Potential
 GR  .GAPI                         :  3 Gamma Ray
 NPHI.PU                           :  4 Neutron Porosity Sandstone
 RES .OHMM                         :  5 Resistivity
 DTS .US/F                         :  6 Shear Sonic, Extended to Datum
 RHOB.G/CC                         :  7 Density,Extended to Datum
 DT  .US/F                         :  8 Sonic,Extended to Datum
~Parameter Information Block
#MNEM.UNIT                Value                      Description
#---------    --------------------   ----------------------------
 EDF .FT                 -999.2500 : DRILLING FLOOR
 EGL .FT                       0.0 : GROUND LEVEL
 EKB .FT                   96.0000 : KELLY BUSHING
 ERF .                   Sea Level : ELEV REFERENCE
 LMF .                          KB : LOG MEASURED FROM
 RUN .                           1 : ========================LOGGING RUN
 DATE.                 25-DEC-1981 : DATE OF LOG RUN
 TLI .FT                       800 : TOP OF LOG RUN
 BLI .FT                      3500 : BOTTOM OF LOG RUN
 DFD .LBSG                  9.5000 : MUD DENSITY
 RMS .OHMS                  0.4199 : MUD RESISTIVITY
 MST .DEGF                 63.0000 : MUD TEMPERATURE
 RMFS.OHMS                  0.3499 : MUD FILTRATE RESISITIVITY
 MFST.DEGF                 63.0000 : MUD FILTRATE TEMPERATURE
 BHT .DEGF                109.0000 : BOTTOM HOLE TEMPERATURE
 RUN .                           2 : ========================LOGGING RUN
 DATE.                 12-JAN-1982 : DATE OF LOG RUN
 TLI .FT                      3500 : TOP OF LOG RUN
 BLI .FT                     10000 : BOTTOM OF LOG RUN
 DFD .LBSG                 13.5000 : MUD DENSITY
 RMS .OHMS                  0.6299 : MUD RESISTIVITY
 MST .DEGF                 50.0000 : MUD TEMPERATURE
 RMFS.OHMS                  0.3799 : MUD FILTRATE RESISITIVITY
 MFST.DEGF                 50.0000 : MUD FILTRATE TEMPERATURE
 BHT .DEGF                240.0000 : BOTTOM HOLE TEMPERATURE
 RUN .                           3 : ========================LOGGING RUN
 DATE.                  3-JAN-1982 : DATE OF LOG RUN
 TLI .FT                     10000 : TOP OF LOG RUN
 BLI .FT                     10900 : BOTTOM OF LOG RUN
 DFD .LBSG                 17.2000 : MUD DENSITY
 RMS .OHMS                  0.7500 : MUD RESISTIVITY
 MST .DEGF                 66.0000 : MUD TEMPERATURE
 RMFS.OHMS                  0.3700 : MUD FILTRATE RESISITIVITY
 MFST.DEGF                 66.0000 : MUD FILTRATE TEMPERATURE
 BHT .DEGF                240.0000 : BOTTOM HOLE TEMPERATURE
~ASCII        SP      GR    NPHI     RES     DTS    RHOB      DT
# ...
  5457.0  -6.082  78.154  41.147   0.413 253.914   2.270 116.976
  5458.0 -11.153  72.511  40.107   0.327 248.495   2.249 116.091
  5459.0 -10.126  68.609  40.520   0.290 267.126   2.216 120.930
  5460.0  -5.702  69.014  41.979   0.291 287.978   2.273 125.580
  5461.0  -1.190  70.888  36.500   0.332 245.425   2.322 114.115
  5462.0   3.127  72.582  34.041   0.470 221.747   2.341 106.899
  5463.0   7.329  74.112  35.744   0.521 227.558   2.344 108.159
  5464.0   7.607  79.981  38.680   0.555 244.268   2.305 112.822
  5465.0   7.337  80.848  37.821   0.557 249.789   2.298 114.345
  5466.0   8.945  82.010  37.434   0.542 243.506   2.299 112.468
  5467.0  11.120  83.594  41.978   0.522 236.933   2.322 110.419
  5468.0  14.182  84.694  44.122   0.511 231.829   2.297 108.663
  5469.0  19.309  86.910  45.582   0.506 236.332   2.304 109.385
  5470.0  23.146  91.481  48.849   0.496 261.054   2.295 115.525
  5471.0  23.499  91.516  50.392   0.480 289.980   2.285 122.498
  5472.0  22.457  91.568  50.480   0.467 274.424   2.290 118.929
  5473.0  22.173  92.722  48.940   0.470 268.331   2.294 117.464
  5474.0  22.522  92.801  46.989   0.492 271.010   2.277 118.087
  5475.0  24.335  91.792  45.044   0.555 274.403   2.296 118.711
  5476.0  25.422  91.026  42.238   0.624 244.464   2.327 110.965
  5477.0  25.333  91.325  42.832   0.695 195.835   2.320  96.793
  5478.0  24.598  93.815  45.564   0.759 225.158   2.281 105.701
  5479.0  25.632  97.564  51.346   0.765 265.304   2.243 116.355
  5480.0  27.298  97.159  54.802   0.712 314.222   2.215 127.681
  5481.0  27.691  93.128  53.056   0.643 344.118   2.193 133.818
  5482.0  24.236  88.599  49.082   0.598 319.170   2.242 128.880
  5483.0  16.659  83.974  44.020   0.573 304.559   2.272 126.647
  5484.0   7.178  80.561  40.778   0.542 296.781   2.266 126.053
  5485.0   2.839  80.323  38.538   0.469 261.193   2.259 117.867
  5486.0   3.861  81.973  36.965   0.452 231.826   2.277 109.759
  5487.0  12.642  84.853  41.097   0.454 231.696   2.307 108.797
  5488.0  23.190  87.096  41.800   0.514 294.726   2.314 123.642
  5489.0  22.237  87.864  42.241   0.599 290.244   2.303 122.726
  5490.0  18.164  86.617  42.514   0.653 256.157   2.289 114.836
  5491.0  17.820  83.953  41.004   0.634 236.650   2.292 109.644
  5492.0  16.717  81.684  40.851   0.594 229.134   2.294 107.649
  5493.0  15.643  81.041  43.488   0.550 229.624   2.271 107.900
  5494.0  18.472  82.717  46.057   0.526 233.037   2.245 108.571
  5495.0  21.995  83.527  47.607   0.523 264.099   2.246 116.445
  5496.0  24.324  83.599  43.556   0.533 314.431   2.256 127.873
  5497.0  22.932  84.466  42.437   0.549 362.703   2.267 137.722
  5498.0  17.286  85.719  42.628   0.550 325.548   2.261 131.113
  5499.0  11.145  86.794  41.713   0.512 296.640   2.255 125.541
  5500.0   6.919  85.501  41.016   0.462 279.822   2.247 122.074
  5501.0   7.353  82.720  40.001   0.432 270.758   2.253 119.787
  5502.0   8.662  80.785  38.816   0.418 264.447   2.245 118.042
  5503.0   9.261  81.791  40.769   0.427 268.199   2.248 118.925
  5504.0   8.828  82.483  41.848   0.438 271.741   2.269 119.862
  5505.0   4.529  81.029  40.632   0.428 277.916   2.242 121.893
  5506.0  -0.474  80.456  41.750   0.396 283.786   2.217 123.924
  5507.0  -4.527  81.901  41.967   0.351 283.114   2.196 124.254
  5508.0  -7.830  80.834  42.675   0.314 281.139   2.196 124.174
  5509.0 -11.348  74.977  44.352   0.280 278.547   2.185 123.962
  5510.0 -11.761  70.821  44.753   0.240 276.867   2.164 123.592
  5511.0  -5.782  71.282  43.177   0.206 278.298   2.166 123.222
  5512.0   8.637  72.712  43.096   0.202 287.629   2.184 123.748
  5513.0  19.043  79.032  44.902   0.244 296.162   2.231 124.487
  5514.0  21.928  82.681  45.958   0.273 296.682   2.264 124.261
  5515.0  21.641  84.079  46.585   0.364 293.337   2.275 123.532
  5516.0  21.434  84.576  46.862   0.472 290.562   2.273 122.918
  5517.0  21.359  84.877  45.791   0.546 288.369   2.271 122.418
  5518.0  20.753  86.977  44.875   0.551 288.728   2.266 122.573
  5519.0  19.642  87.529  44.353   0.485 274.783   2.265 119.377
  5520.0  19.743  86.770  45.552   0.446 276.059   2.269 119.677
  5521.0  23.580  85.385  46.502   0.431 298.896   2.270 124.572
  5522.0  27.738  86.770  45.993   0.437 312.858   2.296 127.388
  5523.0  29.863  91.443  44.842   0.453 309.782   2.307 126.722
  5524.0  29.796  96.576  43.912   0.474 304.671   2.306 125.602
  5525.0  29.461  96.945  45.214   0.494 303.975   2.306 125.448
  5526.0  29.313  95.535  44.199   0.518 280.963   2.309 120.171
  5527.0  29.381  93.647  46.347   0.533 270.532   2.303 117.650
  5528.0  29.682  92.248  50.367   0.531 298.969   2.276 124.332
  5529.0  30.322  92.665  49.699   0.523 312.521   2.299 127.315
  5530.0  30.603  94.002  47.070   0.513 300.155   2.296 124.598
  5531.0  30.076  92.623  44.819   0.494 308.575   2.280 126.459
  5532.0  27.432  90.718  43.232   0.481 319.598   2.281 128.825
  5533.0  23.250  87.390  41.169   0.494 321.161   2.297 129.474
  5534.0  17.548  83.647  37.902   0.524 275.784   2.320 119.871
  5535.0  15.559  81.448  37.477   0.552 216.966   2.329 104.251
  5536.0  17.632  81.951  41.152   0.577 215.990   2.325 103.759
  5537.0  19.997  85.021  43.190   0.614 229.553   2.320 107.463
  5538.0  20.189  86.273  44.782   0.647 245.745   2.305 111.906
  5539.0  20.383  84.748  46.066   0.635 265.740   2.290 117.072
  5540.0  25.578  84.206  48.136   0.579 290.690   2.290 122.485
  5541.0  28.195  84.530  50.432   0.554 296.164   2.292 123.699
  5542.0  29.713  85.816  50.088   0.554 284.743   2.266 121.064
  5543.0  30.048  89.848  48.401   0.570 272.590   2.269 118.154
  5544.0  30.237  91.300  48.167   0.596 257.831   2.289 114.464
  5545.0  30.168  90.146  49.696   0.619 267.173   2.297 116.820
  5546.0  29.209  88.209  52.078   0.629 288.363   2.291 121.909
  5547.0  26.898  88.754  47.545   0.601 305.961   2.270 125.886
  5548.0  23.559  90.128  45.054   0.563 297.613   2.261 124.310
  5549.0  20.419  89.177  43.956   0.531 255.048   2.265 114.345
  5550.0  20.561  87.031  44.417   0.509 258.767   2.275 115.291
  5551.0  22.232  85.412  45.223   0.496 273.161   2.278 118.714
  5552.0  23.962  86.567  47.215   0.485 267.291   2.282 117.074
  5553.0  22.668  87.464  47.953   0.476 249.870   2.272 112.752
  5554.0  22.831  87.121  47.590   0.471 246.095   2.269 111.734
  5555.0  25.273  87.797  49.151   0.493 261.491   2.249 115.478
  5556.0  27.788  87.096  49.218   0.536 279.703   2.227 119.871
  5557.0  27.810  85.707  49.097   0.559 291.055   2.220 122.532
  5558.0  27.632  84.097  50.309   0.568 297.314   2.219 123.959
  5559.0  28.423  83.901  51.556   0.562 321.270   2.229 129.177
  5560.0  27.823  84.676  52.605   0.540 343.981   2.229 133.791
  5561.0  26.091  84.786  53.022   0.509 349.854   2.241 134.936
  5562.0  21.440  83.641  47.720   0.482 309.150   2.260 127.142
  5563.0  16.685  81.956  45.057   0.472 278.657   2.266 120.687
  5564.0  13.898  80.385  41.949   0.479 242.642   2.275 111.747
  5565.0  13.102  80.278  41.708   0.489 229.012   2.285 108.024
  5566.0  13.914  80.229  44.407   0.513 209.159   2.284 102.071
  5567.0  15.204  80.794  47.348   0.536 215.556   2.279 103.883
  5568.0  18.423  84.459  50.673   0.552 250.281   2.237 113.322
  5569.0  26.011  87.719  52.575   0.565 292.930   2.180 122.978
  5570.0  29.398  88.066  50.153   0.579 317.098   2.159 128.295
  5571.0  30.025  86.984  52.701   0.593 336.192   2.159 132.243
  5572.0  30.133  88.090  55.061   0.598 360.683   2.176 136.997
  5573.0  27.830  87.882  51.055   0.595 390.105   2.214 142.293
  5574.0  18.681  85.973  47.427   0.543 355.793   2.254 137.048
  5575.0  11.167  80.671  43.494   0.484 305.648   2.236 127.619
  5576.0   7.561  77.960  42.093   0.445 270.549   2.239 119.738
  5577.0   6.029  78.731  41.245   0.420 265.428   2.252 118.617
  5578.0   3.106  79.677  39.807   0.400 266.668   2.234 119.264
  5579.0  -0.286  78.754  40.611   0.378 265.228   2.224 119.281
  5580.0  -1.214  79.306  42.604   0.357 261.450   2.213 118.409
