~Version Information
 VERS.                         2.0 : CWLS log ASCII Standard -VERSION 2.0
 WRAP.                          NO : One line per depth step
~Well Information Block
#MNEM.UNIT            Data Type                      Information
#---------    --------------------   ----------------------------
 STRT.FT                         1 : 
 STOP.FT                     10900 : 
 STEP.FT                         1 : 
 NULL.                     -999.25 : 
 COMP.         TRANSCO EXPLORATION : COMPANY
 WELL.           OCS G-3546 NO.B-6 : WELL
 FLD .                   VERMILION : FIELD
 AREA.                   VERMILION : OFFSHORE AREA
 BLK .                          58 : OFFSHORE BLOCK
 CNTY.                             : COUNTY
 STAT.                             : STATE
 NATI.                      U.S.A. : NATION
 DATE.                 25-DEC-1981 : DATE OF FIRST LOG RUN
 API .                177054050600 : API
 UWI .                        1107 : UNIQUE WELL NUM
 LATI.               29 20' 20.04" : LATITUDE
 LONG.              -92 29'  1.32" : LONGITUDE
 CORD.    Lambert, South Louisiana Zone : MAP PROJECTION
 XLOC.FT              1633470.0000 : X LOCATION
 YLOC.FT               246314.0000 : Y LOCATION
 UNIT.                        FEET : UNIT OF DATA
~Curve Information Block
#MNEM.UNIT             API CODE                Curve Description
#---------    --------------------   ----------------------------
 DEPT.FT                           :  1 Depth
 SP  .MV                           :  2 Spontaneous Potential
 GR  .GAPI                         :  3 Gamma Ray
 NPHI.PU                           :  4 Neutron Porosity Sandstone
 RES .OHMM                         :  5 Resistivity
 DTS .US/F                         :  6 Shear Sonic, Extended to Datum
 RHOB.G/CC                         :  7 Density,Extended to Datum
 DT  .US/F                         :  8 Sonic,Extended to Datum
~Parameter Information Block
#MNEM.UNIT                Value                      Description
#---------    --------------------   ----------------------------
 EDF .FT                 -999.2500 : DRILLING FLOOR
 EGL .FT                       0.0 : GROUND LEVEL
 EKB .FT                   96.0000 : KELLY BUSHING
 ERF .                   Sea Level : ELEV REFERENCE
 LMF .                          KB : LOG MEASURED FROM
 RUN .                           1 : ========================LOGGING RUN
 DATE.                 25-DEC-1981 : DATE OF LOG RUN
 TLI .FT                       800 : TOP OF LOG RUN
 BLI .FT                      3500 : BOTTOM OF LOG RUN
 DFD .LBSG                  9.5000 : MUD DENSITY
 RMS .OHMS                  0.4199 : MUD RESISTIVITY
 MST .DEGF                 63.0000 : MUD TEMPERATURE
 RMFS.OHMS                  0.3499 : MUD FILTRATE RESISITIVITY
 MFST.DEGF                 63.0000 : MUD FILTRATE TEMPERATURE
 BHT .DEGF                109.0000 : BOTTOM HOLE TEMPERATURE
 RUN .                           2 : ========================LOGGING RUN
 DATE.                 12-JAN-1982 : DATE OF LOG RUN
 TLI .FT                      3500 : TOP OF LOG RUN
 BLI .FT                     10000 : BOTTOM OF LOG RUN
 DFD .LBSG                 13.5000 : MUD DENSITY
 RMS .OHMS                  0.6299 : MUD RESISTIVITY
 MST .DEGF                 50.0000 : MUD TEMPERATURE
 RMFS.OHMS                  0.3799 : MUD FILTRATE RESISITIVITY
 MFST.DEGF                 50.0000 : MUD FILTRATE TEMPERATURE
 BHT .DEGF                240.0000 : BOTTOM HOLE TEMPERATURE
 RUN .                           3 : ========================LOGGING RUN
 DATE.                  3-JAN-1982 : DATE OF LOG RUN
 TLI .FT                     10000 : TOP OF LOG RUN
 BLI .FT                     10900 : BOTTOM OF LOG RUN
 DFD .LBSG                 17.2000 : MUD DENSITY
 RMS .OHMS                  0.7500 : MUD RESISTIVITY
 MST .DEGF                 66.0000 : MUD TEMPERATURE
 RMFS.OHMS                  0.3700 : MUD FILTRATE RESISITIVITY
 MFST.DEGF                 66.0000 : MUD FILTRATE TEMPERATURE
 BHT .DEGF                240.0000 : BOTTOM HOLE TEMPERATURE
~ASCII        SP      GR    NPHI     RES     DTS    RHOB      DT
# ...
  4713.0  19.180  82.038  50.479   0.529 296.738   2.176 123.829
  4714.0  18.663  83.180  50.735   0.531 309.076   2.169 126.568
  4715.0  19.203  83.425  49.603   0.511 311.234   2.182 127.037
  4716.0  20.272  83.767  50.740   0.493 311.030   2.205 126.993
  4717.0  20.439  84.122  51.900   0.491 336.190   2.194 132.243
  4718.0  19.303  82.513  51.376   0.498 358.894   2.181 136.661
  4719.0  17.749  80.864  49.750   0.493 315.661   2.174 127.989
  4720.0  18.342  78.852  52.625   0.468 313.348   2.144 127.493
  4721.0  18.690  78.530  55.002   0.471 330.149   2.115 131.018
  4722.0  18.827  80.121  56.282   0.470 338.825   2.133 132.770
  4723.0  19.335  78.868  56.787   0.454 339.490   2.137 132.903
  4724.0  19.218  80.443  58.529   0.458 338.083   2.151 132.622
  4725.0  18.906  81.494  56.590   0.475 343.069   2.159 133.612
  4726.0  19.643  80.268  55.871   0.497 352.441   2.166 135.434
  4727.0  19.893  80.457  55.024   0.514 360.111   2.171 136.890
  4728.0  19.162  81.091  52.286   0.519 363.496   2.158 137.522
  4729.0  18.431  79.385  49.913   0.515 335.300   2.152 132.064
  4730.0  15.849  78.778  48.779   0.505 310.208   2.150 126.815
  4731.0  15.019  80.125  48.636   0.485 312.228   2.160 127.252
  4732.0  14.706  81.382  48.766   0.466 314.181   2.155 127.689
  4733.0  14.256  80.819  49.685   0.451 319.713   2.154 128.946
  4734.0  12.703  77.833  49.930   0.456 324.692   2.185 130.272
  4735.0   7.289  72.002  48.770   0.484 305.264   2.198 127.058
  4736.0  -0.075  66.644  47.934   0.525 222.395   2.206 107.004
  4737.0   0.027  64.499  48.284   0.567 229.025   2.211 108.923
  4738.0   1.870  65.772  49.275   0.592 241.903   2.200 112.267
  4739.0   3.981  68.991  51.197   0.604 279.498   2.191 121.639
  4740.0   7.255  73.237  54.316   0.615 278.535   2.160 120.848
  4741.0  10.586  75.215  55.454   0.628 254.630   2.146 114.298
  4742.0   8.153  74.283  52.038   0.627 329.672   2.109 132.137
  4743.0   0.956  69.363  49.292   0.572 320.378   2.096 131.517
  4744.0  -4.308  66.650  48.232   0.465 284.503   2.145 124.287
  4745.0  -3.314  67.593  46.653   0.409 277.431   2.154 122.383
  4746.0  -2.438  70.357  45.301   0.361 278.042   2.166 122.380
  4747.0  -2.683  70.649  45.567   0.329 282.591   2.163 123.535
  4748.0  -2.181  73.581  43.891   0.343 293.158   2.189 125.968
  4749.0   0.362  77.315  42.607   0.382 295.242   2.230 126.000
  4750.0   4.430  79.229  42.578   0.425 279.665   2.242 121.593
  4751.0   6.383  79.166  41.410   0.473 274.411   2.260 119.979
  4752.0   4.248  78.474  41.629   0.519 263.575   2.261 117.619
  4753.0   4.188  77.131  44.434   0.554 270.073   2.247 119.270
  4754.0   2.241  74.168  44.855   0.566 290.901   2.225 124.649
  4755.0  -2.735  71.419  45.594   0.546 310.047   2.197 129.928
  4756.0  -8.056  69.660  45.280   0.478 277.595   2.155 123.240
  4757.0 -11.881  69.067  47.244   0.404 282.864   2.115 125.224
  4758.0 -11.630  68.658  50.506   0.345 288.065   2.122 126.448
  4759.0 -10.172  68.624  49.788   0.298 284.880   2.171 125.409
  4760.0  -8.479  68.567  45.846   0.291 277.931   2.201 123.394
  4761.0  -8.010  69.410  45.595   0.296 260.091   2.176 118.748
  4762.0  -9.421  71.979  46.505   0.300 272.155   2.143 122.106
  4763.0  -7.210  74.833  47.199   0.302 300.731   2.136 128.630
  4764.0  -1.598  77.535  46.059   0.307 313.827   2.181 130.546
  4765.0   5.874  79.957  44.742   0.331 296.350   2.227 125.265
  4766.0  10.183  81.403  45.324   0.383 286.840   2.229 122.311
  4767.0  11.502  81.202  48.521   0.439 295.127   2.219 124.003
  4768.0  11.740  79.808  50.833   0.482 319.597   2.217 129.346
  4769.0  11.603  79.019  51.159   0.510 331.929   2.224 131.938
  4770.0  11.465  78.989  51.025   0.508 305.694   2.228 126.382
  4771.0  14.024  79.584  51.446   0.497 296.315   2.214 123.836
  4772.0  16.502  81.693  52.640   0.476 319.029   2.186 128.705
  4773.0  16.545  81.668  54.037   0.458 363.326   2.174 137.491
  4774.0  15.721  79.718  52.922   0.447 375.147   2.168 139.654
  4775.0  14.005  80.737  50.701   0.450 333.714   2.174 131.853
  4776.0  12.024  81.377  51.531   0.450 295.100   2.190 123.900
  4777.0  10.306  82.044  53.022   0.444 305.865   2.196 126.619
  4778.0  10.551  82.260  52.484   0.437 320.963   2.206 129.842
  4779.0  12.880  83.650  48.936   0.434 319.547   2.221 129.120
  4780.0  14.638  84.287  45.781   0.437 310.532   2.236 126.885
  4781.0  14.779  83.032  45.189   0.447 302.696   2.251 125.165
  4782.0  14.530  81.217  46.348   0.454 273.598   2.242 118.419
  4783.0  14.849  81.518  46.490   0.460 279.417   2.222 119.803
  4784.0  15.652  82.091  45.485   0.466 285.389   2.202 121.216
  4785.0  14.563  80.735  45.595   0.476 289.030   2.212 122.095
  4786.0  12.715  77.933  46.667   0.493 273.442   2.243 118.698
  4787.0  11.225  76.709  47.589   0.518 262.488   2.263 116.218
  4788.0  11.779  77.212  48.401   0.537 263.678   2.252 116.435
  4789.0  14.523  78.159  49.334   0.558 278.364   2.229 119.609
  4790.0  16.626  78.463  50.291   0.575 299.087   2.216 124.358
  4791.0  17.855  78.860  51.204   0.579 319.359   2.223 128.774
  4792.0  18.458  79.371  52.195   0.574 333.710   2.234 131.742
  4793.0  18.210  79.859  52.151   0.567 331.342   2.228 131.261
  4794.0  16.763  79.724  51.486   0.557 319.967   2.210 128.903
  4795.0  14.019  78.458  50.374   0.545 286.740   2.201 121.707
  4796.0  12.931  76.493  48.261   0.528 289.270   2.202 122.483
  4797.0  11.624  74.096  46.630   0.521 302.778   2.211 125.786
  4798.0   8.820  71.143  46.774   0.566 309.697   2.216 127.809
  4799.0   3.281  67.858  45.777   0.610 301.112   2.205 126.867
  4800.0  -3.809  64.421  43.614   0.635 275.123   2.165 121.904
  4801.0 -11.973  61.693  44.929   0.488 271.796   2.107 122.454
  4802.0 -18.089  60.457  47.309   0.317 298.576   2.094 130.125
  4803.0 -19.978  60.166  46.355   0.204 299.388   2.098 130.667
  4804.0 -18.799  61.131  46.731   0.164 287.493   2.091 127.581
  4805.0 -16.412  62.550  47.419   0.167 268.256   2.085 122.303
  4806.0 -14.901  63.936  47.062   0.207 265.444   2.093 121.312
  4807.0 -14.045  65.312  47.709   0.306 284.741   2.118 126.056
  4808.0 -14.747  66.077  46.438   0.395 278.252   2.107 124.567
  4809.0 -15.699  65.643  46.074   0.381 286.578   2.095 126.799
  4810.0 -17.548  65.162  46.482   0.308 297.035   2.093 129.655
  4811.0 -19.054  65.353  46.814   0.250 300.226   2.080 130.686
  4812.0 -17.175  66.159  47.878   0.190 291.317   2.054 128.215
  4813.0 -12.591  67.674  49.574   0.179 279.721   2.085 124.563
  4814.0  -6.723  69.720  49.938   0.193 267.298   2.136 120.435
  4815.0  -3.561  71.408  47.615   0.221 271.116   2.163 120.888
  4816.0  -2.027  73.134  48.722   0.268 292.469   2.215 125.837
  4817.0  -3.443  73.652  46.842   0.317 310.045   2.248 130.118
  4818.0  -9.307  69.785  45.316   0.276 303.841   2.206 129.760
  4819.0 -10.867  65.521  44.388   0.241 295.999   2.140 128.211
  4820.0  -8.532  66.118  44.334   0.233 291.678   2.178 126.779
  4821.0  -8.088  68.469  44.761   0.232 287.037   2.182 125.589
  4822.0 -10.467  68.669  45.508   0.287 281.545   2.127 124.656
  4823.0 -11.544  67.247  46.438   0.364 280.384   2.147 124.553
  4824.0 -12.168  65.296  47.043   0.324 282.023   2.151 125.066
  4825.0 -11.143  64.744  45.467   0.247 292.575   2.105 127.451
  4826.0 -10.083  64.812  46.947   0.185 290.221   2.080 126.705
  4827.0  -8.036  66.676  45.878   0.176 286.614   2.135 125.486
  4828.0  -3.552  70.148  43.498   0.187 271.306   2.211 120.961
  4829.0  -0.295  73.945  43.565   0.225 278.277   2.260 122.167
  4830.0  -2.599  75.337  46.235   0.357 283.290   2.221 123.772
  4831.0  -5.577  72.429  46.082   0.380 289.673   2.148 125.809
  4832.0  -1.052  71.764  45.241   0.375 295.844   2.199 126.500
  4833.0   4.431  75.666  47.017   0.370 292.874   2.220 124.893
  4834.0   4.017  77.086  45.440   0.400 271.025   2.203 119.694
  4835.0   0.487  75.094  42.775   0.451 269.810   2.173 119.951
  4836.0  -7.008  71.415  41.267   0.418 285.540   2.135 125.064
