~Version Information
 VERS.                         2.0 : CWLS log ASCII Standard -VERSION 2.0
 WRAP.                          NO : One line per depth step
~Well Information Block
#MNEM.UNIT            Data Type                      Information
#---------    --------------------   ----------------------------
 STRT.FT                         1 : 
 STOP.FT                     10900 : 
 STEP.FT                         1 : 
 NULL.                     -999.25 : 
 COMP.         TRANSCO EXPLORATION : COMPANY
 WELL.           OCS G-3546 NO.B-6 : WELL
 FLD .                   VERMILION : FIELD
 AREA.                   VERMILION : OFFSHORE AREA
 BLK .                          58 : OFFSHORE BLOCK
 CNTY.                             : COUNTY
 STAT.                             : STATE
 NATI.                      U.S.A. : NATION
 DATE.                 25-DEC-1981 : DATE OF FIRST LOG RUN
 API .                177054050600 : API
 UWI .                        1107 : UNIQUE WELL NUM
 LATI.               29 20' 20.04" : LATITUDE
 LONG.              -92 29'  1.32" : LONGITUDE
 CORD.    Lambert, South Louisiana Zone : MAP PROJECTION
 XLOC.FT              1633470.0000 : X LOCATION
 YLOC.FT               246314.0000 : Y LOCATION
 UNIT.                        FEET : UNIT OF DATA
~Curve Information Block
#MNEM.UNIT             API CODE                Curve Description
#---------    --------------------   ----------------------------
 DEPT.FT                           :  1 Depth
 SP  .MV                           :  2 Spontaneous Potential
 GR  .GAPI                         :  3 Gamma Ray
 NPHI.PU                           :  4 Neutron Porosity Sandstone
 RES .OHMM                         :  5 Resistivity
 DTS .US/F                         :  6 Shear Sonic, Extended to Datum
 RHOB.G/CC                         :  7 Density,Extended to Datum
 DT  .US/F                         :  8 Sonic,Extended to Datum
~Parameter Information Block
#MNEM.UNIT                Value                      Description
#---------    --------------------   ----------------------------
 EDF .FT                 -999.2500 : DRILLING FLOOR
 EGL .FT                       0.0 : GROUND LEVEL
 EKB .FT                   96.0000 : KELLY BUSHING
 ERF .                   Sea Level : ELEV REFERENCE
 LMF .                          KB : LOG MEASURED FROM
 RUN .                           1 : ========================LOGGING RUN
 DATE.                 25-DEC-1981 : DATE OF LOG RUN
 TLI .FT                       800 : TOP OF LOG RUN
 BLI .FT                      3500 : BOTTOM OF LOG RUN
 DFD .LBSG                  9.5000 : MUD DENSITY
 RMS .OHMS                  0.4199 : MUD RESISTIVITY
 MST .DEGF                 63.0000 : MUD TEMPERATURE
 RMFS.OHMS                  0.3499 : MUD FILTRATE RESISITIVITY
 MFST.DEGF                 63.0000 : MUD FILTRATE TEMPERATURE
 BHT .DEGF                109.0000 : BOTTOM HOLE TEMPERATURE
 RUN .                           2 : ========================LOGGING RUN
 DATE.                 12-JAN-1982 : DATE OF LOG RUN
 TLI .FT                      3500 : TOP OF LOG RUN
 BLI .FT                     10000 : BOTTOM OF LOG RUN
 DFD .LBSG                 13.5000 : MUD DENSITY
 RMS .OHMS                  0.6299 : MUD RESISTIVITY
 MST .DEGF                 50.0000 : MUD TEMPERATURE
 RMFS.OHMS                  0.3799 : MUD FILTRATE RESISITIVITY
 MFST.DEGF                 50.0000 : MUD FILTRATE TEMPERATURE
 BHT .DEGF                240.0000 : BOTTOM HOLE TEMPERATURE
 RUN .                           3 : ========================LOGGING RUN
 DATE.                  3-JAN-1982 : DATE OF LOG RUN
 TLI .FT                     10000 : TOP OF LOG RUN
 BLI .FT                     10900 : BOTTOM OF LOG RUN
 DFD .LBSG                 17.2000 : MUD DENSITY
 RMS .OHMS                  0.7500 : MUD RESISTIVITY
 MST .DEGF                 66.0000 : MUD TEMPERATURE
 RMFS.OHMS                  0.3700 : MUD FILTRATE RESISITIVITY
 MFST.DEGF                 66.0000 : MUD FILTRATE TEMPERATURE
 BHT .DEGF                240.0000 : BOTTOM HOLE TEMPERATURE
~ASCII        SP      GR    NPHI     RES     DTS    RHOB      DT
# ...
  3473.0  10.911  43.404 -999.25   0.687 334.011   2.146 133.174
  3474.0  13.479  43.528 -999.25   0.690 337.338   2.159 133.153
  3475.0  15.990  43.652 -999.25   0.694 340.602   2.171 133.132
  3476.0  16.368  43.795 -999.25   0.691 340.538   2.171 133.111
  3477.0  16.327  44.031 -999.25   0.688 340.432   2.171 133.090
  3478.0  16.324  44.100 -999.25   0.697 340.326   2.171 133.069
  3479.0  16.356  43.993 -999.25   0.716 340.220   2.172 133.048
  3480.0  16.388  43.885 -999.25   0.731 340.114   2.172 133.027
  3481.0  16.418  43.775 -999.25   0.742 340.008   2.172 133.006
  3482.0  16.422  43.745 -999.25   0.748 339.902   2.172 132.985
  3483.0  16.425  43.742 -999.25   0.755 339.796   2.172 132.964
  3484.0  16.428  43.740 -999.25   0.764 339.690   2.172 132.943
  3485.0  16.432  43.738 -999.25   0.775 339.585   2.172 132.922
  3486.0  16.475  43.736 -999.25   0.787 339.479   2.172 132.901
  3487.0  16.553  43.759 -999.25   0.800 339.373   2.172 132.880
  3488.0  16.631  43.881 -999.25   0.813 339.267   2.172 132.859
  3489.0  16.618  44.002 -999.25   0.823 339.162   2.172 132.838
  3490.0  16.593  44.124 -999.25   0.829 339.056   2.173 132.816
  3491.0  16.567  44.246 -999.25   0.832 338.950   2.173 132.795
  3492.0  16.616  44.345 -999.25   0.830 338.845   2.173 132.774
  3493.0  16.764  44.406 -999.25   0.827 338.739   2.173 132.753
  3494.0  16.911  44.467 -999.25   0.824 338.634   2.173 132.732
  3495.0  17.059  44.452 -999.25   0.822 338.528   2.173 132.711
  3496.0  16.941  44.101 -999.25   0.823 338.423   2.173 132.690
  3497.0  16.818  77.484 -999.25   0.829 338.317   2.173 132.669
  3498.0  16.127  77.503 -999.25   0.836 337.898   2.172 132.648
  3499.0  15.084  74.027 -999.25   0.843 336.476   2.167 132.627
  3500.0  14.040  70.569  47.926   0.800 335.069   2.215 132.606
  3501.0  12.997  67.963  43.960   0.673 333.675   2.191 132.585
  3502.0  -1.440  65.901  43.418   0.494 316.433   2.183 132.564
  3503.0 -10.314  65.066  43.398   0.370 306.839   2.168 132.543
  3504.0 -14.259  64.228  42.634   0.322 306.749   2.188 132.522
  3505.0 -12.712  64.430  40.560   0.311 306.658   2.208 132.501
  3506.0 -10.779  64.661  41.439   0.346 306.567   2.214 132.480
  3507.0  -6.896  65.731  42.859   0.377 294.344   2.241 128.800
  3508.0  -6.009  67.703  44.118   0.401 296.728   2.256 129.138
  3509.0  -5.927  69.213  44.258   0.422 300.315   2.258 129.952
  3510.0  -5.478  69.303  43.348   0.438 294.516   2.268 128.460
  3511.0  -1.016  70.234  44.638   0.440 289.401   2.239 126.160
  3512.0   4.135  69.727  47.166   0.446 305.165   2.226 128.606
  3513.0   5.194  68.781  45.534   0.477 328.781   2.252 133.493
  3514.0   4.682  68.062  44.814   0.501 288.683   2.276 124.651
  3515.0   2.781  66.612  44.833   0.503 285.202   2.280 124.247
  3516.0   0.759  63.766  44.686   0.504 313.856   2.276 131.340
  3517.0  -1.851  62.606  43.042   0.522 290.823   2.256 126.650
  3518.0  -4.508  62.080  40.595   0.518 249.638   2.222 116.685
  3519.0  -3.877  69.529  43.441   0.519 240.665   2.193 114.047
  3520.0  -1.842  74.173  47.743   0.537 274.844   2.254 122.707
  3521.0   4.132  75.051  48.630   0.573 295.087   2.282 126.256
  3522.0  12.000  74.410  48.585   0.625 304.904   2.295 126.713
  3523.0  15.615  76.316  48.232   0.671 305.365   2.272 126.010
  3524.0  16.081  75.247  47.914   0.706 309.861   2.254 126.895
  3525.0  14.531  74.637  46.271   0.727 300.057   2.256 125.071
  3526.0  13.541  74.691  41.659   0.724 278.955   2.278 120.375
  3527.0  13.681  76.529  43.818   0.709 266.347   2.290 117.252
  3528.0  13.677  78.016  48.800   0.690 295.777   2.259 124.292
  3529.0  14.906  79.303  51.039   0.656 333.731   2.262 132.194
  3530.0  16.187  79.850  53.275   0.637 382.617   2.233 141.154
  3531.0  14.511  80.337  50.051   0.630 371.203   2.271 139.516
  3532.0  11.803  80.945  47.175   0.639 321.543   2.265 130.377
  3533.0  10.470  81.680  46.678   0.636 271.058   2.233 119.085
  3534.0  11.171  82.391  50.553   0.585 251.448   2.180 113.923
  3535.0  13.478  82.150  54.694   0.524 321.517   2.119 129.999
  3536.0  15.900  81.884  58.538   0.474 430.026   2.138 149.115
  3537.0  17.463  79.440  56.238   0.475 435.998   2.190 149.764
  3538.0  17.557  75.957  51.763   0.514 366.852   2.236 138.143
  3539.0  17.421  74.448  47.805   0.594 316.657   2.270 128.201
  3540.0  16.798  74.825  45.751   0.694 276.224   2.263 119.082
  3541.0  16.271  75.912  46.638   0.767 274.356   2.250 118.737
  3542.0  17.064  77.220  48.862   0.792 313.788   2.218 127.588
  3543.0  17.857  78.573  49.391   0.743 358.947   2.187 136.671
  3544.0  19.077  79.921  49.184   0.695 384.142   2.180 141.254
  3545.0  20.214  82.453  50.354   0.667 380.038   2.179 140.529
  3546.0  20.305  83.755  51.478   0.655 372.281   2.177 139.136
  3547.0  19.369  83.272  52.362   0.662 362.061   2.162 137.255
  3548.0  18.432  81.493  53.535   0.665 359.406   2.135 136.757
  3549.0  17.303  81.094  55.562   0.638 382.554   2.075 140.974
  3550.0  16.103  81.798  56.842   0.581 411.228   1.957 146.069
  3551.0  14.913  83.869  58.163   0.512 430.981   1.967 149.514
  3552.0  15.143  83.740  57.413   0.465 434.287   2.026 149.965
  3553.0  15.158  78.744  55.867   0.448 427.625   2.061 148.919
  3554.0  14.645  74.581  57.437   0.451 431.771   2.091 149.690
  3555.0  14.774  70.311  54.959   0.479 405.034   2.154 145.347
  3556.0  14.766  66.782  49.630   0.553 327.430   2.225 130.925
  3557.0  13.699  65.489  44.910   0.605 306.437   2.247 126.658
  3558.0   9.903  66.056  45.437   0.648 308.672   2.217 127.941
  3559.0   2.485  66.543  44.932   0.603 311.656   2.188 130.183
  3560.0  -5.238  66.404  45.429   0.476 315.327   2.201 132.696
  3561.0  -6.101  67.379  44.160   0.413 290.350   2.215 127.093
  3562.0   0.126  70.297  45.173   0.381 246.146   2.230 114.479
  3563.0   9.989  74.167  47.073   0.405 259.639   2.234 116.203
  3564.0  13.113  77.485  47.772   0.495 293.337   2.211 123.795
  3565.0   9.821  75.319  47.684   0.576 305.071   2.185 127.122
  3566.0   1.513  70.002  46.350   0.599 303.974   2.193 128.612
  3567.0  -6.565  63.878  43.216   0.500 300.283   2.190 129.486
  3568.0 -13.272  61.473  41.375   0.366 300.715   2.187 131.049
  3569.0 -15.779  61.883  40.000   0.319 306.532   2.199 132.471
  3570.0 -15.376  63.614  39.757   0.304 302.625   2.204 131.559
  3571.0 -14.741  64.533  40.013   0.319 302.701   2.215 131.576
  3572.0 -13.968  64.362  38.259   0.344 305.467   2.221 132.224
  3573.0 -13.859  63.997  37.567   0.381 309.428   2.240 133.141
  3574.0 -13.232  64.003  37.366   0.414 313.385   2.263 133.900
  3575.0 -11.462  64.318  38.324   0.435 307.808   2.257 132.215
  3576.0  -8.661  66.390  40.141   0.431 297.954   2.243 129.297
  3577.0  -4.049  69.695  42.478   0.427 294.524   2.232 127.501
  3578.0   0.424  72.322  45.066   0.435 299.118   2.226 127.635
  3579.0   3.336  71.296  47.104   0.432 307.680   2.226 128.970
  3580.0   4.223  68.744  48.362   0.430 316.742   2.234 130.780
  3581.0   3.632  66.756  48.614   0.439 326.102   2.248 132.911
  3582.0   3.870  65.703  46.869   0.455 303.904   2.260 127.997
  3583.0   4.295  66.691  43.914   0.472 269.074   2.265 119.589
  3584.0   7.643  69.744  43.451   0.506 269.978   2.261 119.175
  3585.0  10.409  72.930  44.452   0.552 306.307   2.261 127.187
  3586.0  12.848  74.937  45.685   0.591 341.030   2.270 133.982
  3587.0  12.335  74.319  46.017   0.632 361.191   2.272 138.000
  3588.0   9.534  72.413  45.649   0.662 363.209   2.258 139.000
  3589.0   1.769  69.904  44.909   0.618 327.791   2.245 133.640
  3590.0  -5.842  67.594  43.668   0.495 307.473   2.227 130.819
  3591.0  -8.430  66.954  42.076   0.428 313.058   2.219 132.641
  3592.0  -7.941  67.215  40.400   0.377 310.362   2.230 131.920
  3593.0  -4.824  67.378  39.104   0.370 303.209   2.246 129.612
  3594.0  -2.470  68.262  39.243   0.392 290.140   2.262 126.054
  3595.0  -0.435  70.779  41.488   0.445 275.306   2.277 122.025
  3596.0   1.696  73.323  44.326   0.474 268.410   2.281 119.874
