~Version Information
 VERS.                         2.0 : CWLS log ASCII Standard -VERSION 2.0
 WRAP.                          NO : One line per depth step
~Well Information Block
#MNEM.UNIT            Data Type                      Information
#---------    --------------------   ----------------------------
 STRT.FT                         1 : 
 STOP.FT                     10900 : 
 STEP.FT                         1 : 
 NULL.                     -999.25 : 
 COMP.         TRANSCO EXPLORATION : COMPANY
 WELL.           OCS G-3546 NO.B-6 : WELL
 FLD .                   VERMILION : FIELD
 AREA.                   VERMILION : OFFSHORE AREA
 BLK .                          58 : OFFSHORE BLOCK
 CNTY.                             : COUNTY
 STAT.                             : STATE
 NATI.                      U.S.A. : NATION
 DATE.                 25-DEC-1981 : DATE OF FIRST LOG RUN
 API .                177054050600 : API
 UWI .                        1107 : UNIQUE WELL NUM
 LATI.               29 20' 20.04" : LATITUDE
 LONG.              -92 29'  1.32" : LONGITUDE
 CORD.    Lambert, South Louisiana Zone : MAP PROJECTION
 XLOC.FT              1633470.0000 : X LOCATION
 YLOC.FT               246314.0000 : Y LOCATION
 UNIT.                        FEET : UNIT OF DATA
~Curve Information Block
#MNEM.UNIT             API CODE                Curve Description
#---------    --------------------   ----------------------------
 DEPT.FT                           :  1 Depth
 SP  .MV                           :  2 Spontaneous Potential
 GR  .GAPI                         :  3 Gamma Ray
 NPHI.PU                           :  4 Neutron Porosity Sandstone
 RES .OHMM                         :  5 Resistivity
 DTS .US/F                         :  6 Shear Sonic, Extended to Datum
 RHOB.G/CC                         :  7 Density,Extended to Datum
 DT  .US/F                         :  8 Sonic,Extended to Datum
~Parameter Information Block
#MNEM.UNIT                Value                      Description
#---------    --------------------   ----------------------------
 EDF .FT                 -999.2500 : DRILLING FLOOR
 EGL .FT                       0.0 : GROUND LEVEL
 EKB .FT                   96.0000 : KELLY BUSHING
 ERF .                   Sea Level : ELEV REFERENCE
 LMF .                          KB : LOG MEASURED FROM
 RUN .                           1 : ========================LOGGING RUN
 DATE.                 25-DEC-1981 : DATE OF LOG RUN
 TLI .FT                       800 : TOP OF LOG RUN
 BLI .FT                      3500 : BOTTOM OF LOG RUN
 DFD .LBSG                  9.5000 : MUD DENSITY
 RMS .OHMS                  0.4199 : MUD RESISTIVITY
 MST .DEGF                 63.0000 : MUD TEMPERATURE
 RMFS.OHMS                  0.3499 : MUD FILTRATE RESISITIVITY
 MFST.DEGF                 63.0000 : MUD FILTRATE TEMPERATURE
 BHT .DEGF                109.0000 : BOTTOM HOLE TEMPERATURE
 RUN .                           2 : ========================LOGGING RUN
 DATE.                 12-JAN-1982 : DATE OF LOG RUN
 TLI .FT                      3500 : TOP OF LOG RUN
 BLI .FT                     10000 : BOTTOM OF LOG RUN
 DFD .LBSG                 13.5000 : MUD DENSITY
 RMS .OHMS                  0.6299 : MUD RESISTIVITY
 MST .DEGF                 50.0000 : MUD TEMPERATURE
 RMFS.OHMS                  0.3799 : MUD FILTRATE RESISITIVITY
 MFST.DEGF                 50.0000 : MUD FILTRATE TEMPERATURE
 BHT .DEGF                240.0000 : BOTTOM HOLE TEMPERATURE
 RUN .                           3 : ========================LOGGING RUN
 DATE.                  3-JAN-1982 : DATE OF LOG RUN
 TLI .FT                     10000 : TOP OF LOG RUN
 BLI .FT                     10900 : BOTTOM OF LOG RUN
 DFD .LBSG                 17.2000 : MUD DENSITY
 RMS .OHMS                  0.7500 : MUD RESISTIVITY
 MST .DEGF                 66.0000 : MUD TEMPERATURE
 RMFS.OHMS                  0.3700 : MUD FILTRATE RESISITIVITY
 MFST.DEGF                 66.0000 : MUD FILTRATE TEMPERATURE
 BHT .DEGF                240.0000 : BOTTOM HOLE TEMPERATURE
~ASCII        SP      GR    NPHI     RES     DTS    RHOB      DT
# ...
  8805.0  26.832  73.554  47.426   0.825 253.491   2.302 113.345
  8806.0  26.450  73.440  43.006   0.805 255.371   2.331 113.832
  8807.0  25.475  72.893  42.617   0.796 257.263   2.345 114.319
  8808.0  24.050  74.650  44.029   0.802 238.377   2.332 109.454
  8809.0  23.578  74.763  46.442   0.812 209.284   2.317 101.161
  8810.0  24.068  75.458  48.565   0.815 232.287   2.312 107.768
  8811.0  24.668  73.759  50.178   0.798 255.602   2.288 113.916
  8812.0  24.760  71.238  50.709   0.756 264.245   2.279 116.098
  8813.0  24.835  73.195  48.247   0.735 266.357   2.266 116.617
  8814.0  24.764  77.415  46.373   0.730 257.421   2.278 114.367
  8815.0  24.692  78.082  46.432   0.729 254.412   2.267 113.606
  8816.0  24.484  77.193  49.746   0.726 255.712   2.258 113.983
  8817.0  24.113  75.054  51.042   0.723 258.687   2.273 114.819
  8818.0  23.742  74.146  48.984   0.720 261.686   2.279 115.656
  8819.0  23.385  73.113  46.464   0.733 256.139   2.295 114.308
  8820.0  23.384  70.965  44.446   0.801 222.886   2.319 105.227
  8821.0  24.656  68.485  46.131   0.886 225.064   2.262 105.626
  8822.0  25.269  69.169  46.239   0.930 239.266   2.242 109.561
  8823.0  25.285  70.865  45.070   0.906 255.328   2.241 113.821
  8824.0  25.867  71.871  46.805   0.830 261.565   2.277 115.415
  8825.0  26.192  71.725  47.152   0.791 264.737   2.313 116.213
  8826.0  26.379  71.475  46.384   0.810 251.040   2.351 112.706
  8827.0  25.997  71.631  45.598   0.859 230.919   2.331 107.254
  8828.0  25.050  72.172  44.214   0.919 228.102   2.335 106.461
  8829.0  25.404  72.489  47.109   0.961 232.222   2.326 107.619
  8830.0  25.726  71.668  46.482   0.952 236.219   2.307 108.727
  8831.0  25.894  70.457  43.951   0.903 230.340   2.338 107.092
  8832.0  24.993  71.079  42.691   0.873 228.857   2.313 106.674
  8833.0  23.511  70.786  44.357   0.869 239.933   2.314 109.998
  8834.0  22.465  71.083  44.093   0.881 264.616   2.366 116.670
  8835.0  23.041  72.431  42.020   0.880 216.931   2.387 103.563
  8836.0  23.703  73.328  41.181   0.851 239.865   2.371 109.945
  8837.0  24.133  73.634  42.128   0.830 251.048   2.370 112.851
  8838.0  24.515  74.394  44.041   0.819 236.080   2.375 108.754
  8839.0  24.733  76.359  44.309   0.840 240.317   2.369 109.871
  8840.0  24.861  77.637  43.380   0.888 230.513   2.362 107.141
  8841.0  24.502  78.877  44.113   0.934 224.511   2.355 105.506
  8842.0  24.124  80.054  44.711   0.964 225.404   2.344 105.833
  8843.0  24.874  79.273  45.987   0.944 227.039   2.326 106.160
  8844.0  25.448  77.379  46.581   0.893 231.602   2.302 107.446
  8845.0  25.727  77.651  47.736   0.790 242.176   2.289 110.350
  8846.0  25.846  78.673  49.385   0.733 252.808   2.306 113.167
  8847.0  25.410  78.309  47.888   0.722 260.377   2.313 115.114
  8848.0  24.974  76.014  46.776   0.735 248.971   2.334 112.162
  8849.0  25.068  73.735  45.904   0.767 239.829   2.340 109.714
  8850.0  25.363  74.664  48.087   0.831 236.077   2.352 108.687
  8851.0  26.327  75.544  48.976   0.900 232.645   2.361 107.737
  8852.0  26.261  74.100  44.884   0.955 229.741   2.370 106.924
  8853.0  26.195  71.603  45.591   1.002 232.465   2.384 107.687
  8854.0  26.122  72.449  45.395   1.000 235.214   2.389 108.449
  8855.0  26.044  72.811  44.124   0.976 233.804   2.348 108.059
  8856.0  25.710  72.354  41.891   0.963 231.741   2.332 107.484
  8857.0  23.862  70.609  38.949   0.987 234.142   2.400 108.357
  8858.0  21.740  70.296  38.179   1.035 249.273   2.435 112.893
  8859.0  19.980  68.510  37.123   1.085 235.805   2.449 109.597
  8860.0  20.579  68.797  36.368   1.161 214.610   2.420 103.365
  8861.0  22.629  70.216  39.977   1.213 213.826   2.430 102.746
  8862.0  22.632  70.615  41.212   1.171 211.759   2.416 102.126
  8863.0  22.636  71.011  41.033   1.139 216.297   2.387 103.482
  8864.0  22.261  72.697  41.044   1.139 225.228   2.370 106.161
  8865.0  21.795  73.984  41.432   1.136 217.860   2.413 104.108
  8866.0  21.561  74.951  41.459   1.148 203.265   2.423  99.732
  8867.0  21.543  75.596  39.535   1.164 210.255   2.424 101.884
  8868.0  21.691  73.842  37.794   1.184 223.883   2.424 105.892
  8869.0  21.839  74.354  38.283   1.187 218.439   2.437 104.276
  8870.0  23.709  74.517  41.131   1.176 194.490   2.414  96.580
  8871.0  25.238  73.384  43.209   1.148 202.184   2.375  98.783
  8872.0  26.077  72.000  40.565   1.117 211.836   2.381 101.725
  8873.0  26.193  70.663  40.682   1.076 211.316   2.385 101.569
  8874.0  26.615  68.581  42.318   1.027 214.157   2.371 102.417
  8875.0  27.214  68.958  42.222   1.033 229.243   2.341 106.783
  8876.0  25.711  70.544  45.489   1.058 245.221   2.335 111.167
  8877.0  23.129  73.061  47.226   1.070 218.853   2.332 104.157
  8878.0  23.614  76.657  47.488   1.045 239.945   2.333 110.023
  8879.0  24.101  78.815  47.811   1.006 243.198   2.340 110.803
  8880.0  24.593  79.253  45.169   0.962 214.102   2.348 102.470
  8881.0  25.086  78.503  44.561   0.920 217.686   2.364 103.459
  8882.0  25.454  76.654  46.694   0.928 244.733   2.361 111.037
  8883.0  25.373  73.690  44.596   0.975 224.908   2.372 105.552
  8884.0  25.292  72.709  42.908   1.032 193.745   2.385  96.125
  8885.0  24.534  72.992  41.144   1.049 217.918   2.379 103.611
  8886.0  23.672  69.970  40.365   1.049 226.802   2.362 106.354
  8887.0  22.131  68.137  39.332   1.066 206.024   2.394 100.505
  8888.0  21.588  68.989  39.300   1.098 199.114   2.389  98.455
  8889.0  22.068  70.476  41.197   1.155 196.323   2.358  97.481
  8890.0  22.705  71.626  40.021   1.235 193.648   2.385  96.508
  8891.0  23.366  71.878  39.278   1.291 191.206   2.373  95.600
  8892.0  24.026  73.854  40.463   1.307 191.232   2.383  95.489
  8893.0  24.498  75.407  39.096   1.311 193.220   2.373  96.044
  8894.0  24.417  72.080  36.988   1.307 192.316   2.354  95.769
  8895.0  24.336  69.752  36.938   1.311 185.369   2.358  93.519
  8896.0  23.678  69.865  37.782   1.320 181.121   2.358  92.220
  8897.0  23.390  70.965  38.224   1.346 182.208   2.348  92.635
  8898.0  23.478  72.701  38.532   1.350 186.404   2.386  94.014
  8899.0  23.623  74.137  39.086   1.256 201.841   2.371  98.934
  8900.0  24.023  74.849  40.623   1.205 207.374   2.349 100.563
  8901.0  24.423  75.910  40.663   1.184 198.208   2.362  97.647
  8902.0  24.427  76.440  40.428   1.182 199.944   2.376  98.192
  8903.0  24.210  75.428  43.049   1.218 192.842   2.378  95.980
  8904.0  23.982  74.065  42.277   1.258 177.598   2.376  90.979
  8905.0  23.647  74.208  40.348   1.281 179.271   2.371  91.606
  8906.0  23.312  75.621  40.382   1.266 188.097   2.356  94.605
  8907.0  23.698  77.373  41.447   1.241 201.501   2.347  98.818
  8908.0  24.044  77.364  42.922   1.223 207.651   2.385 100.648
  8909.0  23.926  75.236  44.031   1.219 197.791   2.373  97.612
  8910.0  24.361  73.236  43.777   1.236 194.988   2.348  96.642
  8911.0  24.787  73.152  43.965   1.233 194.526   2.376  96.416
  8912.0  25.131  76.456  45.538   1.221 197.802   2.370  97.413
  8913.0  25.060  77.480  44.181   1.179 202.731   2.351  98.952
  8914.0  24.988  77.314  43.348   1.160 203.965   2.363  99.339
  8915.0  24.988  76.892  43.838   1.163 204.184   2.328  99.407
  8916.0  23.799  76.495  42.200   1.167 205.430   2.357 100.020
  8917.0  23.697  75.615  40.342   1.186 207.363   2.379 100.632
  8918.0  23.786  74.883  39.731   1.204 207.924   2.335 100.787
  8919.0  24.081  74.567  39.867   1.202 206.889   2.337 100.414
  8920.0  24.377  74.303  42.379   1.205 205.651   2.352  99.978
  8921.0  24.764  74.094  43.214   1.205 204.181   2.345  99.452
  8922.0  25.202  73.514  42.683   1.208 201.692   2.351  98.630
  8923.0  25.368  73.420  41.771   1.220 199.000   2.365  97.789
  8924.0  24.879  74.524  40.932   1.244 197.030   2.367  97.200
  8925.0  24.391  75.867  40.233   1.284 196.105   2.376  96.999
  8926.0  24.149  75.856  39.459   1.314 196.585   2.378  97.197
  8927.0  23.923  76.344  38.767   1.282 198.172   2.378  97.742
  8928.0  24.074  77.647  40.991   1.218 199.783   2.397  98.220
